{"localidades-censales":[{"fuente":"INDEC","municipio":{"nombre":"Benito Juárez","id":"060084"},"departamento":{"nombre":"Benito Juárez","id":"06084"},"nombre":"Benito Juárez","id":"06084020","provincia":{"nombre":"Buenos Aires","id":"06"},"funcion":"CABECERA_DEPARTAMENTO","categoria":"Localidad simple","centroide":{"lat":-37.6766410210104,"lon":-59.8057677109444}},{"fuente":"INDEC","municipio":{"nombre":"Benito Juárez","id":"060084"},"departamento":{"nombre":"Benito Juárez","id":"06084"},"nombre":"López","id":"06084030","provincia":{"nombre":"Buenos Aires","id":"06"},"funcion":null,"categoria":"Localidad simple","centroide":{"lat":-37.5545120854221,"lon":-59.6278461536299}},{"fuente":"INDEC","municipio":{"nombre":"Benito Juárez","id":"060084"},"departamento":{"nombre":"Benito Juárez","id":"06084"},"nombre":"Tedín Uriburu","id":"06084040","provincia":{"nombre":"Buenos Aires","id":"06"},"funcion":null,"categoria":"Localidad simple","centroide":{"lat":-37.3683686253208,"lon":-59.7630391604187}},{"fuente":"INDEC","municipio":{"nombre":"Benito Juárez","id":"060084"},"departamento":{"nombre":"Benito Juárez","id":"06084"},"nombre":"Villa Cacique","id":"06084050","provincia":{"nombre":"Buenos Aires","id":"06"},"funcion":null,"categoria":"Localidad simple","centroide":{"lat":-37.6704778893557,"lon":-59.4003533386514}},{"fuente":"INDEC","municipio":{"nombre":"Berazategui","id":"060091"},"departamento":{"nombre":"Berazategui","id":"06091"},"nombre":"Berazategui","id":"06091010","provincia":{"nombre":"Buenos Aires","id":"06"},"funcion":"CABECERA_DEPARTAMENTO","categoria":"Componente de localidad compuesta","centroide":{"lat":-34.7633439435624,"lon":-58.2078083914443}},{"fuente":"INDEC","municipio":{"nombre":"Berisso","id":"060098"},"departamento":{"nombre":"Berisso","id":"06098"},"nombre":"Berisso","id":"06098010","provincia":{"nombre":"Buenos Aires","id":"06"},"funcion":"CABECERA_DEPARTAMENTO","categoria":"Componente de localidad compuesta","centroide":{"lat":-34.8764141983789,"lon":-57.8863953320288}},{"fuente":"INDEC","municipio":{"nombre":"Bolívar","id":"060105"},"departamento":{"nombre":"Bolívar","id":"06105"},"nombre":"Hale","id":"06105010","provincia":{"nombre":"Buenos Aires","id":"06"},"funcion":null,"categoria":"Localidad simple","centroide":{"lat":-36.0010429767568,"lon":-60.8534495072374}},{"fuente":"INDEC","municipio":{"nombre":"Bolívar","id":"060105"},"departamento":{"nombre":"Bolívar","id":"06105"},"nombre":"Juan F. Ibarra","id":"06105020","provincia":{"nombre":"Buenos Aires","id":"06"},"funcion":null,"categoria":"Localidad simple","centroide":{"lat":-36.3498770527922,"lon":-61.2552591224517}},{"fuente":"INDEC","municipio":{"nombre":"Bolívar","id":"060105"},"departamento":{"nombre":"Bolívar","id":"06105"},"nombre":"Paula","id":"06105040","provincia":{"nombre":"Buenos Aires","id":"06"},"funcion":null,"categoria":"Localidad simple","centroide":{"lat":-36.5053183545527,"lon":-61.0243287245345}},{"fuente":"INDEC","municipio":{"nombre":"Bolívar","id":"060105"},"departamento":{"nombre":"Bolívar","id":"06105"},"nombre":"Pirovano","id":"06105050","provincia":{"nombre":"Buenos Aires","id":"06"},"funcion":null,"categoria":"Localidad simple","centroide":{"lat":-36.5109170215402,"lon":-61.5545516558692}},{"fuente":"INDEC","municipio":{"nombre":"Bolívar","id":"060105"},"departamento":{"nombre":"Bolívar","id":"06105"},"nombre":"San Carlos de Bolívar","id":"06105060","provincia":{"nombre":"Buenos Aires","id":"06"},"funcion":"CABECERA_DEPARTAMENTO","categoria":"Localidad simple","centroide":{"lat":-36.2295602208798,"lon":-61.1131898679982}},{"fuente":"INDEC","municipio":{"nombre":"Bolívar","id":"060105"},"departamento":{"nombre":"Bolívar","id":"06105"},"nombre":"Urdampilleta","id":"06105070","provincia":{"nombre":"Buenos Aires","id":"06"},"funcion":null,"categoria":"Localidad simple","centroide":{"lat":-36.4329292363695,"lon":-61.419116019242}},{"fuente":"INDEC","municipio":{"nombre":"Bolívar","id":"060105"},"departamento":{"nombre":"Bolívar","id":"06105"},"nombre":"Villa Lynch Pueyrredón","id":"06105080","provincia":{"nombre":"Buenos Aires","id":"06"},"funcion":null,"categoria":"Localidad simple","centroide":{"lat":-36.6025793254646,"lon":-61.3618625494724}},{"fuente":"INDEC","municipio":{"nombre":"Bragado","id":"060112"},"departamento":{"nombre":"Bragado","id":"06112"},"nombre":"Asamblea","id":"06112005","provincia":{"nombre":"Buenos Aires","id":"06"},"funcion":null,"categoria":"Localidad simple","centroide":{"lat":-35.2267581272748,"lon":-60.4168952837295}},{"fuente":"INDEC","municipio":{"nombre":"Bragado","id":"060112"},"departamento":{"nombre":"Bragado","id":"06112"},"nombre":"Bragado","id":"06112010","provincia":{"nombre":"Buenos Aires","id":"06"},"funcion":"CABECERA_DEPARTAMENTO","categoria":"Localidad simple","centroide":{"lat":-35.1189422997629,"lon":-60.4879147568209}},{"fuente":"INDEC","municipio":{"nombre":"Bragado","id":"060112"},"departamento":{"nombre":"Bragado","id":"06112"},"nombre":"Comodoro Py","id":"06112020","provincia":{"nombre":"Buenos Aires","id":"06"},"funcion":null,"categoria":"Localidad simple","centroide":{"lat":-35.3233100374631,"lon":-60.5217314911689}},{"fuente":"INDEC","municipio":{"nombre":"Bragado","id":"060112"},"departamento":{"nombre":"Bragado","id":"06112"},"nombre":"General O'Brien","id":"06112030","provincia":{"nombre":"Buenos Aires","id":"06"},"funcion":null,"categoria":"Localidad simple","centroide":{"lat":-34.9067979091956,"lon":-60.7597838238054}},{"fuente":"INDEC","municipio":{"nombre":"Bragado","id":"060112"},"departamento":{"nombre":"Bragado","id":"06112"},"nombre":"Irala","id":"06112040","provincia":{"nombre":"Buenos Aires","id":"06"},"funcion":null,"categoria":"Localidad simple","centroide":{"lat":-34.7718230311122,"lon":-60.6916912010277}},{"fuente":"INDEC","municipio":{"nombre":"Bragado","id":"060112"},"departamento":{"nombre":"Bragado","id":"06112"},"nombre":"La Limpia","id":"06112050","provincia":{"nombre":"Buenos Aires","id":"06"},"funcion":null,"categoria":"Localidad simple","centroide":{"lat":-35.0797272650156,"lon":-60.5928546665185}},{"fuente":"INDEC","municipio":{"nombre":"Bragado","id":"060112"},"departamento":{"nombre":"Bragado","id":"06112"},"nombre":"Juan F. Salaberry","id":"06112060","provincia":{"nombre":"Buenos Aires","id":"06"},"funcion":null,"categoria":"Localidad simple","centroide":{"lat":-35.0615246745825,"lon":-60.7060741424473}},{"fuente":"INDEC","municipio":{"nombre":"Bragado","id":"060112"},"departamento":{"nombre":"Bragado","id":"06112"},"nombre":"Mechita","id":"06112070","provincia":{"nombre":"Buenos Aires","id":"06"},"funcion":null,"categoria":"Componente de localidad compuesta","centroide":{"lat":-35.0699378566803,"lon":-60.4084937925362}},{"fuente":"INDEC","municipio":{"nombre":"Bragado","id":"060112"},"departamento":{"nombre":"Bragado","id":"06112"},"nombre":"Olascoaga","id":"06112080","provincia":{"nombre":"Buenos Aires","id":"06"},"funcion":null,"categoria":"Localidad simple","centroide":{"lat":-35.2375277927366,"lon":-60.6115341696178}},{"fuente":"INDEC","municipio":{"nombre":"Bragado","id":"060112"},"departamento":{"nombre":"Bragado","id":"06112"},"nombre":"Warnes","id":"06112090","provincia":{"nombre":"Buenos Aires","id":"06"},"funcion":null,"categoria":"Localidad simple","centroide":{"lat":-34.9098734445056,"lon":-60.5381681629003}},{"fuente":"INDEC","municipio":{"nombre":"Brandsen","id":"060119"},"departamento":{"nombre":"Brandsen","id":"06119"},"nombre":"Altamirano","id":"06119010","provincia":{"nombre":"Buenos Aires","id":"06"},"funcion":null,"categoria":"Localidad simple","centroide":{"lat":-35.3615828022139,"lon":-58.1504868159157}},{"fuente":"INDEC","municipio":{"nombre":"Brandsen","id":"060119"},"departamento":{"nombre":"Brandsen","id":"06119"},"nombre":"Barrio El Mirador","id":"06119015","provincia":{"nombre":"Buenos Aires","id":"06"},"funcion":null,"categoria":"Localidad simple","centroide":{"lat":-35.3145370547125,"lon":-58.0484420796345}},{"fuente":"INDEC","municipio":{"nombre":"Brandsen","id":"060119"},"departamento":{"nombre":"Brandsen","id":"06119"},"nombre":"Barrio Las Golondrinas","id":"06119020","provincia":{"nombre":"Buenos Aires","id":"06"},"funcion":null,"categoria":"Localidad simple","centroide":{"lat":-35.0335777783555,"lon":-58.1935382681817}},{"fuente":"INDEC","municipio":{"nombre":"Brandsen","id":"060119"},"departamento":{"nombre":"Brandsen","id":"06119"},"nombre":"Barrio Los Bosquecitos","id":"06119030","provincia":{"nombre":"Buenos Aires","id":"06"},"funcion":null,"categoria":"Localidad simple","centroide":{"lat":-35.1050389949725,"lon":-58.1835007859607}},{"fuente":"INDEC","municipio":{"nombre":"Brandsen","id":"060119"},"departamento":{"nombre":"Brandsen","id":"06119"},"nombre":"Barrio Parque Las Acacias","id":"06119040","provincia":{"nombre":"Buenos Aires","id":"06"},"funcion":null,"categoria":"Localidad simple","centroide":{"lat":-35.1030329461442,"lon":-58.2730405375653}},{"fuente":"INDEC","municipio":{"nombre":"Brandsen","id":"060119"},"departamento":{"nombre":"Brandsen","id":"06119"},"nombre":"Campos de Roca","id":"06119045","provincia":{"nombre":"Buenos Aires","id":"06"},"funcion":null,"categoria":"Localidad simple","centroide":{"lat":-35.1149772603157,"lon":-58.0953896541907}},{"fuente":"INDEC","municipio":{"nombre":"Brandsen","id":"060119"},"departamento":{"nombre":"Brandsen","id":"06119"},"nombre":"Coronel Brandsen","id":"06119050","provincia":{"nombre":"Buenos Aires","id":"06"},"funcion":"CABECERA_DEPARTAMENTO","categoria":"Localidad simple","centroide":{"lat":-35.1690983002919,"lon":-58.2373529446643}},{"fuente":"INDEC","municipio":{"nombre":"Brandsen","id":"060119"},"departamento":{"nombre":"Brandsen","id":"06119"},"nombre":"Club de Campo Las Malvinas","id":"06119055","provincia":{"nombre":"Buenos Aires","id":"06"},"funcion":null,"categoria":"Localidad simple","centroide":{"lat":-35.2139978115731,"lon":-58.2433030920635}},{"fuente":"INDEC","municipio":{"nombre":"Brandsen","id":"060119"},"departamento":{"nombre":"Brandsen","id":"06119"},"nombre":"Gómez","id":"06119060","provincia":{"nombre":"Buenos Aires","id":"06"},"funcion":null,"categoria":"Localidad simple","centroide":{"lat":-35.0693655332834,"lon":-58.1656899882305}},{"fuente":"INDEC","municipio":{"nombre":"Brandsen","id":"060119"},"departamento":{"nombre":"Brandsen","id":"06119"},"nombre":"Jeppener","id":"06119070","provincia":{"nombre":"Buenos Aires","id":"06"},"funcion":null,"categoria":"Localidad simple","centroide":{"lat":-35.2802043920968,"lon":-58.1996649431989}},{"fuente":"INDEC","municipio":{"nombre":"Brandsen","id":"060119"},"departamento":{"nombre":"Brandsen","id":"06119"},"nombre":"Oliden","id":"06119080","provincia":{"nombre":"Buenos Aires","id":"06"},"funcion":null,"categoria":"Localidad simple","centroide":{"lat":-35.1842584334678,"lon":-57.9479623248001}},{"fuente":"INDEC","municipio":{"nombre":"Brandsen","id":"060119"},"departamento":{"nombre":"Brandsen","id":"06119"},"nombre":"Posada de los Lagos","id":"06119085","provincia":{"nombre":"Buenos Aires","id":"06"},"funcion":null,"categoria":"Localidad simple","centroide":{"lat":-35.1499383981993,"lon":-58.0504528667351}},{"fuente":"INDEC","municipio":{"nombre":"Brandsen","id":"060119"},"departamento":{"nombre":"Brandsen","id":"06119"},"nombre":"Samborombón","id":"06119090","provincia":{"nombre":"Buenos Aires","id":"06"},"funcion":null,"categoria":"Localidad simple","centroide":{"lat":-35.2206242719966,"lon":-58.2805297949826}},{"fuente":"INDEC","municipio":{"nombre":"Campana","id":"060126"},"departamento":{"nombre":"Campana","id":"06126"},"nombre":"Los Cardales","id":"06126010","provincia":{"nombre":"Buenos Aires","id":"06"},"funcion":null,"categoria":"Componente de localidad compuesta","centroide":{"lat":-34.3160243688815,"lon":-58.9784574815339}},{"fuente":"INDEC","municipio":{"nombre":"Campana","id":"060126"},"departamento":{"nombre":"Campana","id":"06126"},"nombre":"Barrio Los Pioneros (Barrio Tavella)","id":"06126020","provincia":{"nombre":"Buenos Aires","id":"06"},"funcion":null,"categoria":"Localidad simple","centroide":{"lat":-34.2530406367633,"lon":-58.9584400368589}},{"fuente":"INDEC","municipio":{"nombre":"Campana","id":"060126"},"departamento":{"nombre":"Campana","id":"06126"},"nombre":"Campana","id":"06126030","provincia":{"nombre":"Buenos Aires","id":"06"},"funcion":"CABECERA_DEPARTAMENTO","categoria":"Localidad simple","centroide":{"lat":-34.1639618118269,"lon":-58.9588741035355}},{"fuente":"INDEC","municipio":{"nombre":"Campana","id":"060126"},"departamento":{"nombre":"Campana","id":"06126"},"nombre":"Chacras del Río Luján","id":"06126035","provincia":{"nombre":"Buenos Aires","id":"06"},"funcion":null,"categoria":"Localidad simple","centroide":{"lat":-34.2934153226239,"lon":-58.921199044246}},{"fuente":"INDEC","municipio":{"nombre":"Campana","id":"060126"},"departamento":{"nombre":"Campana","id":"06126"},"nombre":"Río Luján","id":"06126040","provincia":{"nombre":"Buenos Aires","id":"06"},"funcion":null,"categoria":"Localidad simple","centroide":{"lat":-34.2816770641806,"lon":-58.8911906524052}},{"fuente":"INDEC","municipio":{"nombre":"Cañuelas","id":"060134"},"departamento":{"nombre":"Cañuelas","id":"06134"},"nombre":"Alejandro Petión","id":"06134010","provincia":{"nombre":"Buenos Aires","id":"06"},"funcion":null,"categoria":"Localidad simple","centroide":{"lat":-34.9793768508134,"lon":-58.6749430768989}},{"fuente":"INDEC","municipio":{"nombre":"Cañuelas","id":"060134"},"departamento":{"nombre":"Cañuelas","id":"06134"},"nombre":"Barrio El Taladro","id":"06134020","provincia":{"nombre":"Buenos Aires","id":"06"},"funcion":null,"categoria":"Localidad simple","centroide":{"lat":-35.0742486164225,"lon":-58.8632420603475}},{"fuente":"INDEC","municipio":{"nombre":"Cañuelas","id":"060134"},"departamento":{"nombre":"Cañuelas","id":"06134"},"nombre":"Cañuelas","id":"06134030","provincia":{"nombre":"Buenos Aires","id":"06"},"funcion":"CABECERA_DEPARTAMENTO","categoria":"Localidad simple","centroide":{"lat":-35.0527140350539,"lon":-58.7583856965375}},{"fuente":"INDEC","municipio":{"nombre":"Cañuelas","id":"060134"},"departamento":{"nombre":"Cañuelas","id":"06134"},"nombre":"Gobernador Udaondo","id":"06134040","provincia":{"nombre":"Buenos Aires","id":"06"},"funcion":null,"categoria":"Localidad simple","centroide":{"lat":-35.3003271130454,"lon":-58.5943053657455}},{"fuente":"INDEC","municipio":{"nombre":"Cañuelas","id":"060134"},"departamento":{"nombre":"Cañuelas","id":"06134"},"nombre":"Máximo Paz","id":"06134050","provincia":{"nombre":"Buenos Aires","id":"06"},"funcion":null,"categoria":"Componente de localidad compuesta","centroide":{"lat":-34.9405321574521,"lon":-58.6160962899907}},{"fuente":"INDEC","municipio":{"nombre":"Cañuelas","id":"060134"},"departamento":{"nombre":"Cañuelas","id":"06134"},"nombre":"Santa Rosa","id":"06134060","provincia":{"nombre":"Buenos Aires","id":"06"},"funcion":null,"categoria":"Localidad simple","centroide":{"lat":-34.9611839371811,"lon":-58.7308918275978}},{"fuente":"INDEC","municipio":{"nombre":"Cañuelas","id":"060134"},"departamento":{"nombre":"Cañuelas","id":"06134"},"nombre":"Uribelarrea","id":"06134070","provincia":{"nombre":"Buenos Aires","id":"06"},"funcion":null,"categoria":"Localidad simple","centroide":{"lat":-35.1227364407356,"lon":-58.8904871463421}},{"fuente":"INDEC","municipio":{"nombre":"Cañuelas","id":"060134"},"departamento":{"nombre":"Cañuelas","id":"06134"},"nombre":"Vicente Casares","id":"06134080","provincia":{"nombre":"Buenos Aires","id":"06"},"funcion":null,"categoria":"Localidad simple","centroide":{"lat":-34.9653526702416,"lon":-58.6504979594296}},{"fuente":"INDEC","municipio":{"nombre":"Capitán Sarmiento","id":"060140"},"departamento":{"nombre":"Capitán Sarmiento","id":"06140"},"nombre":"Capitán Sarmiento","id":"06140010","provincia":{"nombre":"Buenos Aires","id":"06"},"funcion":"CABECERA_DEPARTAMENTO","categoria":"Localidad simple","centroide":{"lat":-34.1723674255219,"lon":-59.789349139091}},{"fuente":"INDEC","municipio":{"nombre":"Capitán Sarmiento","id":"060140"},"departamento":{"nombre":"Capitán Sarmiento","id":"06140"},"nombre":"La Luisa","id":"06140020","provincia":{"nombre":"Buenos Aires","id":"06"},"funcion":null,"categoria":"Localidad simple","centroide":{"lat":-34.1285572110784,"lon":-59.9240058312679}},{"fuente":"INDEC","municipio":{"nombre":"Carlos Casares","id":"060147"},"departamento":{"nombre":"Carlos Casares","id":"06147"},"nombre":"Bellocq","id":"06147010","provincia":{"nombre":"Buenos Aires","id":"06"},"funcion":null,"categoria":"Localidad simple","centroide":{"lat":-35.9189705554631,"lon":-61.5312630222769}},{"fuente":"INDEC","municipio":{"nombre":"Carlos Casares","id":"060147"},"departamento":{"nombre":"Carlos Casares","id":"06147"},"nombre":"Cadret","id":"06147020","provincia":{"nombre":"Buenos Aires","id":"06"},"funcion":null,"categoria":"Localidad simple","centroide":{"lat":-35.7727531397053,"lon":-61.3353879836967}},{"fuente":"INDEC","municipio":{"nombre":"Carlos Casares","id":"060147"},"departamento":{"nombre":"Carlos Casares","id":"06147"},"nombre":"Carlos Casares","id":"06147030","provincia":{"nombre":"Buenos Aires","id":"06"},"funcion":"CABECERA_DEPARTAMENTO","categoria":"Localidad simple","centroide":{"lat":-35.623543502046,"lon":-61.3653159121918}},{"fuente":"INDEC","municipio":{"nombre":"Carlos Casares","id":"060147"},"departamento":{"nombre":"Carlos Casares","id":"06147"},"nombre":"Colonia Mauricio","id":"06147040","provincia":{"nombre":"Buenos Aires","id":"06"},"funcion":null,"categoria":"Localidad simple","centroide":{"lat":-35.5249595511909,"lon":-61.4378670824782}},{"fuente":"INDEC","municipio":{"nombre":"Carlos Casares","id":"060147"},"departamento":{"nombre":"Carlos Casares","id":"06147"},"nombre":"Hortensia","id":"06147050","provincia":{"nombre":"Buenos Aires","id":"06"},"funcion":null,"categoria":"Localidad simple","centroide":{"lat":-35.9277092575349,"lon":-61.262290153739}},{"fuente":"INDEC","municipio":{"nombre":"Carlos Casares","id":"060147"},"departamento":{"nombre":"Carlos Casares","id":"06147"},"nombre":"La Sofía","id":"06147060","provincia":{"nombre":"Buenos Aires","id":"06"},"funcion":null,"categoria":"Localidad simple","centroide":{"lat":-35.7003907357414,"lon":-61.1702865161871}},{"fuente":"INDEC","municipio":{"nombre":"Carlos Casares","id":"060147"},"departamento":{"nombre":"Carlos Casares","id":"06147"},"nombre":"Mauricio Hirsch","id":"06147070","provincia":{"nombre":"Buenos Aires","id":"06"},"funcion":null,"categoria":"Localidad simple","centroide":{"lat":-35.583017649873,"lon":-61.5244457086778}},{"fuente":"INDEC","municipio":{"nombre":"Carlos Casares","id":"060147"},"departamento":{"nombre":"Carlos Casares","id":"06147"},"nombre":"Moctezuma","id":"06147080","provincia":{"nombre":"Buenos Aires","id":"06"},"funcion":null,"categoria":"Localidad simple","centroide":{"lat":-35.4774725641963,"lon":-61.4930734927676}},{"fuente":"INDEC","municipio":{"nombre":"Carlos Casares","id":"060147"},"departamento":{"nombre":"Carlos Casares","id":"06147"},"nombre":"Ordoqui","id":"06147090","provincia":{"nombre":"Buenos Aires","id":"06"},"funcion":null,"categoria":"Localidad simple","centroide":{"lat":-35.8831262095535,"lon":-61.1594280439031}},{"fuente":"INDEC","municipio":{"nombre":"Carlos Casares","id":"060147"},"departamento":{"nombre":"Carlos Casares","id":"06147"},"nombre":"Santo Tomás","id":"06147095","provincia":{"nombre":"Buenos Aires","id":"06"},"funcion":null,"categoria":"Localidad simple","centroide":{"lat":-35.6740915009624,"lon":-61.5066664301674}},{"fuente":"INDEC","municipio":{"nombre":"Carlos Casares","id":"060147"},"departamento":{"nombre":"Carlos Casares","id":"06147"},"nombre":"Smith","id":"06147100","provincia":{"nombre":"Buenos Aires","id":"06"},"funcion":null,"categoria":"Localidad simple","centroide":{"lat":-35.4946290260766,"lon":-61.5937811081594}},{"fuente":"INDEC","municipio":{"nombre":"Carlos Tejedor","id":"060154"},"departamento":{"nombre":"Carlos Tejedor","id":"06154"},"nombre":"Carlos Tejedor","id":"06154010","provincia":{"nombre":"Buenos Aires","id":"06"},"funcion":"CABECERA_DEPARTAMENTO","categoria":"Localidad simple","centroide":{"lat":-35.3925733302196,"lon":-62.4193023144118}},{"fuente":"INDEC","municipio":{"nombre":"Carlos Tejedor","id":"060154"},"departamento":{"nombre":"Carlos Tejedor","id":"06154"},"nombre":"Colonia Seré","id":"06154020","provincia":{"nombre":"Buenos Aires","id":"06"},"funcion":null,"categoria":"Localidad simple","centroide":{"lat":-35.4388157700903,"lon":-62.7252382146864}},{"fuente":"INDEC","municipio":{"nombre":"Carlos Tejedor","id":"060154"},"departamento":{"nombre":"Carlos Tejedor","id":"06154"},"nombre":"Curarú","id":"06154030","provincia":{"nombre":"Buenos Aires","id":"06"},"funcion":null,"categoria":"Localidad simple","centroide":{"lat":-35.6403503028113,"lon":-62.1924372294866}},{"fuente":"INDEC","municipio":{"nombre":"Carlos Tejedor","id":"060154"},"departamento":{"nombre":"Carlos Tejedor","id":"06154"},"nombre":"Timote","id":"06154040","provincia":{"nombre":"Buenos Aires","id":"06"},"funcion":null,"categoria":"Localidad simple","centroide":{"lat":-35.3477615165229,"lon":-62.2246532791856}},{"fuente":"INDEC","municipio":{"nombre":"Carlos Tejedor","id":"060154"},"departamento":{"nombre":"Carlos Tejedor","id":"06154"},"nombre":"Tres Algarrobos","id":"06154050","provincia":{"nombre":"Buenos Aires","id":"06"},"funcion":null,"categoria":"Localidad simple","centroide":{"lat":-35.1979815144911,"lon":-62.7730814064669}},{"fuente":"INDEC","municipio":{"nombre":"Carmen de Areco","id":"060161"},"departamento":{"nombre":"Carmen de Areco","id":"06161"},"nombre":"Carmen de Areco","id":"06161010","provincia":{"nombre":"Buenos Aires","id":"06"},"funcion":"CABECERA_DEPARTAMENTO","categoria":"Localidad simple","centroide":{"lat":-34.3776987251735,"lon":-59.8229019801033}},{"fuente":"INDEC","municipio":{"nombre":"Carmen de Areco","id":"060161"},"departamento":{"nombre":"Carmen de Areco","id":"06161"},"nombre":"Pueblo Gouin","id":"06161020","provincia":{"nombre":"Buenos Aires","id":"06"},"funcion":null,"categoria":"Localidad simple","centroide":{"lat":-34.4951191416005,"lon":-59.8029737383366}},{"fuente":"INDEC","municipio":{"nombre":"Carmen de Areco","id":"060161"},"departamento":{"nombre":"Carmen de Areco","id":"06161"},"nombre":"Tres Sargentos","id":"06161030","provincia":{"nombre":"Buenos Aires","id":"06"},"funcion":null,"categoria":"Localidad simple","centroide":{"lat":-34.4664778301466,"lon":-60.0008697422008}},{"fuente":"INDEC","municipio":{"nombre":"Castelli","id":"060168"},"departamento":{"nombre":"Castelli","id":"06168"},"nombre":"Castelli","id":"06168010","provincia":{"nombre":"Buenos Aires","id":"06"},"funcion":"CABECERA_DEPARTAMENTO","categoria":"Localidad simple","centroide":{"lat":-36.091694119436,"lon":-57.8071801619355}},{"fuente":"INDEC","municipio":{"nombre":"Castelli","id":"060168"},"departamento":{"nombre":"Castelli","id":"06168"},"nombre":"Centro Guerrero","id":"06168020","provincia":{"nombre":"Buenos Aires","id":"06"},"funcion":null,"categoria":"Localidad simple","centroide":{"lat":-36.0570621940227,"lon":-57.8235422591575}},{"fuente":"INDEC","municipio":{"nombre":"Castelli","id":"060168"},"departamento":{"nombre":"Castelli","id":"06168"},"nombre":"Cerro de la Gloria","id":"06168030","provincia":{"nombre":"Buenos Aires","id":"06"},"funcion":null,"categoria":"Localidad simple","centroide":{"lat":-35.976053059995,"lon":-57.4487354447874}},{"fuente":"INDEC","municipio":{"nombre":"Colón","id":"060175"},"departamento":{"nombre":"Colón","id":"06175"},"nombre":"Colón","id":"06175010","provincia":{"nombre":"Buenos Aires","id":"06"},"funcion":"CABECERA_DEPARTAMENTO","categoria":"Localidad simple","centroide":{"lat":-33.8978633606345,"lon":-61.099560506382}},{"fuente":"INDEC","municipio":{"nombre":"Colón","id":"060175"},"departamento":{"nombre":"Colón","id":"06175"},"nombre":"Villa Manuel Pomar","id":"06175020","provincia":{"nombre":"Buenos Aires","id":"06"},"funcion":null,"categoria":"Componente de localidad compuesta","centroide":{"lat":-33.9147838019682,"lon":-60.9438081845998}},{"fuente":"INDEC","municipio":{"nombre":"Colón","id":"060175"},"departamento":{"nombre":"Colón","id":"06175"},"nombre":"Pearson","id":"06175030","provincia":{"nombre":"Buenos Aires","id":"06"},"funcion":null,"categoria":"Localidad simple","centroide":{"lat":-33.6518963027432,"lon":-60.8922239880462}},{"fuente":"INDEC","municipio":{"nombre":"Colón","id":"060175"},"departamento":{"nombre":"Colón","id":"06175"},"nombre":"Sarasa","id":"06175040","provincia":{"nombre":"Buenos Aires","id":"06"},"funcion":null,"categoria":"Localidad simple","centroide":{"lat":-34.0523353092343,"lon":-61.2019040914738}},{"fuente":"INDEC","municipio":{"nombre":"Coronel de Marina Leonardo Rosales","id":"060182"},"departamento":{"nombre":"Coronel de Marina Leonardo Rosales","id":"06182"},"nombre":"Bajo Hondo","id":"06182010","provincia":{"nombre":"Buenos Aires","id":"06"},"funcion":null,"categoria":"Localidad simple","centroide":{"lat":-38.7648159927502,"lon":-61.9184051093309}},{"fuente":"INDEC","municipio":{"nombre":"Coronel de Marina Leonardo Rosales","id":"060182"},"departamento":{"nombre":"Coronel de Marina Leonardo Rosales","id":"06182"},"nombre":"Balneario Pehuen Co","id":"06182020","provincia":{"nombre":"Buenos Aires","id":"06"},"funcion":null,"categoria":"Localidad simple","centroide":{"lat":-38.9961963948629,"lon":-61.5471990087107}},{"fuente":"INDEC","municipio":{"nombre":"Coronel de Marina Leonardo Rosales","id":"060182"},"departamento":{"nombre":"Coronel de Marina Leonardo Rosales","id":"06182"},"nombre":"Pago Chico","id":"06182025","provincia":{"nombre":"Buenos Aires","id":"06"},"funcion":null,"categoria":"Localidad simple","centroide":{"lat":-38.7839402799391,"lon":-62.1195194756714}},{"fuente":"INDEC","municipio":{"nombre":"Coronel de Marina Leonardo Rosales","id":"060182"},"departamento":{"nombre":"Coronel de Marina Leonardo Rosales","id":"06182"},"nombre":"Punta Alta","id":"06182030","provincia":{"nombre":"Buenos Aires","id":"06"},"funcion":"CABECERA_DEPARTAMENTO","categoria":"Localidad simple","centroide":{"lat":-38.8813527346955,"lon":-62.0749536088688}},{"fuente":"INDEC","municipio":{"nombre":"Coronel de Marina Leonardo Rosales","id":"060182"},"departamento":{"nombre":"Coronel de Marina Leonardo Rosales","id":"06182"},"nombre":"Villa General Arias","id":"06182050","provincia":{"nombre":"Buenos Aires","id":"06"},"funcion":null,"categoria":"Localidad simple","centroide":{"lat":-38.8069001411051,"lon":-62.09498539538}},{"fuente":"INDEC","municipio":{"nombre":"Coronel Dorrego","id":"060189"},"departamento":{"nombre":"Coronel Dorrego","id":"06189"},"nombre":"Aparicio","id":"06189010","provincia":{"nombre":"Buenos Aires","id":"06"},"funcion":null,"categoria":"Localidad simple","centroide":{"lat":-38.6204949120776,"lon":-60.8809603426407}},{"fuente":"INDEC","municipio":{"nombre":"Coronel Dorrego","id":"060189"},"departamento":{"nombre":"Coronel Dorrego","id":"06189"},"nombre":"Marisol","id":"06189020","provincia":{"nombre":"Buenos Aires","id":"06"},"funcion":null,"categoria":"Localidad simple","centroide":{"lat":-38.9224906889726,"lon":-60.5329774471942}},{"fuente":"INDEC","municipio":{"nombre":"Coronel Dorrego","id":"060189"},"departamento":{"nombre":"Coronel Dorrego","id":"06189"},"nombre":"Coronel Dorrego","id":"06189030","provincia":{"nombre":"Buenos Aires","id":"06"},"funcion":"CABECERA_DEPARTAMENTO","categoria":"Localidad simple","centroide":{"lat":-38.7166239148323,"lon":-61.2884948879698}},{"fuente":"INDEC","municipio":{"nombre":"Coronel Dorrego","id":"060189"},"departamento":{"nombre":"Coronel Dorrego","id":"06189"},"nombre":"El Perdido","id":"06189040","provincia":{"nombre":"Buenos Aires","id":"06"},"funcion":null,"categoria":"Localidad simple","centroide":{"lat":-38.6757752787603,"lon":-61.0884421797928}},{"fuente":"INDEC","municipio":{"nombre":"Coronel Dorrego","id":"060189"},"departamento":{"nombre":"Coronel Dorrego","id":"06189"},"nombre":"Faro","id":"06189050","provincia":{"nombre":"Buenos Aires","id":"06"},"funcion":null,"categoria":"Localidad simple","centroide":{"lat":-38.7966781095909,"lon":-61.0688772134763}},{"fuente":"INDEC","municipio":{"nombre":"Coronel Dorrego","id":"060189"},"departamento":{"nombre":"Coronel Dorrego","id":"06189"},"nombre":"Irene","id":"06189060","provincia":{"nombre":"Buenos Aires","id":"06"},"funcion":null,"categoria":"Localidad simple","centroide":{"lat":-38.5543426342658,"lon":-60.6954938748393}},{"fuente":"INDEC","municipio":{"nombre":"Coronel Dorrego","id":"060189"},"departamento":{"nombre":"Coronel Dorrego","id":"06189"},"nombre":"Oriente","id":"06189070","provincia":{"nombre":"Buenos Aires","id":"06"},"funcion":null,"categoria":"Localidad simple","centroide":{"lat":-38.7388491145692,"lon":-60.6092238150828}},{"fuente":"INDEC","municipio":{"nombre":"Coronel Dorrego","id":"060189"},"departamento":{"nombre":"Coronel Dorrego","id":"06189"},"nombre":"Paraje La Ruta","id":"06189075","provincia":{"nombre":"Buenos Aires","id":"06"},"funcion":null,"categoria":"Localidad simple","centroide":{"lat":-38.6534164106777,"lon":-60.8608557685895}},{"fuente":"INDEC","municipio":{"nombre":"Coronel Dorrego","id":"060189"},"departamento":{"nombre":"Coronel Dorrego","id":"06189"},"nombre":"San Román","id":"06189080","provincia":{"nombre":"Buenos Aires","id":"06"},"funcion":null,"categoria":"Localidad simple","centroide":{"lat":-38.7415550885108,"lon":-61.5377200112301}},{"fuente":"INDEC","municipio":{"nombre":"Coronel Pringles","id":"060196"},"departamento":{"nombre":"Coronel Pringles","id":"06196"},"nombre":"Coronel Pringles","id":"06196010","provincia":{"nombre":"Buenos Aires","id":"06"},"funcion":"CABECERA_DEPARTAMENTO","categoria":"Localidad simple","centroide":{"lat":-37.9865210556901,"lon":-61.3540715661068}},{"fuente":"INDEC","municipio":{"nombre":"Coronel Pringles","id":"060196"},"departamento":{"nombre":"Coronel Pringles","id":"06196"},"nombre":"El Divisorio","id":"06196020","provincia":{"nombre":"Buenos Aires","id":"06"},"funcion":null,"categoria":"Localidad simple","centroide":{"lat":-38.3235636030787,"lon":-61.4450578127822}},{"fuente":"INDEC","municipio":{"nombre":"Coronel Pringles","id":"060196"},"departamento":{"nombre":"Coronel Pringles","id":"06196"},"nombre":"El Pensamiento","id":"06196030","provincia":{"nombre":"Buenos Aires","id":"06"},"funcion":null,"categoria":"Localidad simple","centroide":{"lat":-38.2154094275446,"lon":-61.3145847771451}},{"fuente":"INDEC","municipio":{"nombre":"Coronel Pringles","id":"060196"},"departamento":{"nombre":"Coronel Pringles","id":"06196"},"nombre":"Indio Rico","id":"06196040","provincia":{"nombre":"Buenos Aires","id":"06"},"funcion":null,"categoria":"Localidad simple","centroide":{"lat":-38.3293770967784,"lon":-60.8866340266383}},{"fuente":"INDEC","municipio":{"nombre":"Coronel Pringles","id":"060196"},"departamento":{"nombre":"Coronel Pringles","id":"06196"},"nombre":"Lartigau","id":"06196050","provincia":{"nombre":"Buenos Aires","id":"06"},"funcion":null,"categoria":"Localidad simple","centroide":{"lat":-38.44591903663,"lon":-61.566096860456}},{"fuente":"INDEC","municipio":{"nombre":"Coronel Suárez","id":"060203"},"departamento":{"nombre":"Coronel Suárez","id":"06203"},"nombre":"Cascada","id":"06203010","provincia":{"nombre":"Buenos Aires","id":"06"},"funcion":null,"categoria":"Localidad simple","centroide":{"lat":-37.2899615825436,"lon":-62.2971682457111}},{"fuente":"INDEC","municipio":{"nombre":"Coronel Suárez","id":"060203"},"departamento":{"nombre":"Coronel Suárez","id":"06203"},"nombre":"Coronel Suárez","id":"06203020","provincia":{"nombre":"Buenos Aires","id":"06"},"funcion":"CABECERA_DEPARTAMENTO","categoria":"Localidad simple","centroide":{"lat":-37.4596224938743,"lon":-61.9317530113989}},{"fuente":"INDEC","municipio":{"nombre":"Coronel Suárez","id":"060203"},"departamento":{"nombre":"Coronel Suárez","id":"06203"},"nombre":"Curamalal","id":"06203030","provincia":{"nombre":"Buenos Aires","id":"06"},"funcion":null,"categoria":"Localidad simple","centroide":{"lat":-37.4843018699441,"lon":-62.10361959864}},{"fuente":"INDEC","municipio":{"nombre":"Coronel Suárez","id":"060203"},"departamento":{"nombre":"Coronel Suárez","id":"06203"},"nombre":"D'Orbigny","id":"06203040","provincia":{"nombre":"Buenos Aires","id":"06"},"funcion":null,"categoria":"Localidad simple","centroide":{"lat":-37.6772293087783,"lon":-61.7052608546557}},{"fuente":"INDEC","municipio":{"nombre":"Coronel Suárez","id":"060203"},"departamento":{"nombre":"Coronel Suárez","id":"06203"},"nombre":"Huanguelén","id":"06203050","provincia":{"nombre":"Buenos Aires","id":"06"},"funcion":null,"categoria":"Localidad simple","centroide":{"lat":-37.0622288209544,"lon":-61.9297529087938}},{"fuente":"INDEC","municipio":{"nombre":"Coronel Suárez","id":"060203"},"departamento":{"nombre":"Coronel Suárez","id":"06203"},"nombre":"Pasman","id":"06203060","provincia":{"nombre":"Buenos Aires","id":"06"},"funcion":null,"categoria":"Localidad simple","centroide":{"lat":-37.2234351404125,"lon":-62.1602259170472}},{"fuente":"INDEC","municipio":{"nombre":"Coronel Suárez","id":"060203"},"departamento":{"nombre":"Coronel Suárez","id":"06203"},"nombre":"San José","id":"06203070","provincia":{"nombre":"Buenos Aires","id":"06"},"funcion":null,"categoria":"Localidad simple","centroide":{"lat":-37.5077480260109,"lon":-61.9211473085303}},{"fuente":"INDEC","municipio":{"nombre":"Coronel Suárez","id":"060203"},"departamento":{"nombre":"Coronel Suárez","id":"06203"},"nombre":"Santa María","id":"06203080","provincia":{"nombre":"Buenos Aires","id":"06"},"funcion":null,"categoria":"Localidad simple","centroide":{"lat":-37.5565856774998,"lon":-61.872634363442}},{"fuente":"INDEC","municipio":{"nombre":"Coronel Suárez","id":"060203"},"departamento":{"nombre":"Coronel Suárez","id":"06203"},"nombre":"Santa Trinidad","id":"06203090","provincia":{"nombre":"Buenos Aires","id":"06"},"funcion":null,"categoria":"Localidad simple","centroide":{"lat":-37.4891036510029,"lon":-61.9252761219778}},{"fuente":"INDEC","municipio":{"nombre":"Coronel Suárez","id":"060203"},"departamento":{"nombre":"Coronel Suárez","id":"06203"},"nombre":"Villa La Arcadia","id":"06203100","provincia":{"nombre":"Buenos Aires","id":"06"},"funcion":null,"categoria":"Componente de localidad compuesta","centroide":{"lat":-38.1345025284944,"lon":-61.7885553500206}},{"fuente":"INDEC","municipio":{"nombre":"Chacabuco","id":"060210"},"departamento":{"nombre":"Chacabuco","id":"06210"},"nombre":"Castilla","id":"06210010","provincia":{"nombre":"Buenos Aires","id":"06"},"funcion":null,"categoria":"Localidad simple","centroide":{"lat":-34.6131247014799,"lon":-59.9005194580559}},{"fuente":"INDEC","municipio":{"nombre":"Chacabuco","id":"060210"},"departamento":{"nombre":"Chacabuco","id":"06210"},"nombre":"Chacabuco","id":"06210020","provincia":{"nombre":"Buenos Aires","id":"06"},"funcion":"CABECERA_DEPARTAMENTO","categoria":"Localidad simple","centroide":{"lat":-34.6429843999409,"lon":-60.4701843504346}},{"fuente":"INDEC","municipio":{"nombre":"Chacabuco","id":"060210"},"departamento":{"nombre":"Chacabuco","id":"06210"},"nombre":"Los Angeles","id":"06210030","provincia":{"nombre":"Buenos Aires","id":"06"},"funcion":null,"categoria":"Localidad simple","centroide":{"lat":-34.4575064000002,"lon":-60.1801845132051}},{"fuente":"INDEC","municipio":{"nombre":"Chacabuco","id":"060210"},"departamento":{"nombre":"Chacabuco","id":"06210"},"nombre":"O'Higgins","id":"06210040","provincia":{"nombre":"Buenos Aires","id":"06"},"funcion":null,"categoria":"Localidad simple","centroide":{"lat":-34.5854707868254,"lon":-60.6986325840688}},{"fuente":"INDEC","municipio":{"nombre":"Chacabuco","id":"060210"},"departamento":{"nombre":"Chacabuco","id":"06210"},"nombre":"Rawson","id":"06210050","provincia":{"nombre":"Buenos Aires","id":"06"},"funcion":null,"categoria":"Localidad simple","centroide":{"lat":-34.6086374337309,"lon":-60.0677106761006}},{"fuente":"INDEC","municipio":{"nombre":"Chascomús","id":"060218"},"departamento":{"nombre":"Chascomús","id":"06217"},"nombre":"Barrio Lomas Altas","id":"06217003","provincia":{"nombre":"Buenos Aires","id":"06"},"funcion":null,"categoria":"Localidad simple","centroide":{"lat":-35.5739889229165,"lon":-58.0680436475186}},{"fuente":"INDEC","municipio":{"nombre":"Chascomús","id":"060218"},"departamento":{"nombre":"Chascomús","id":"06217"},"nombre":"Chascomús","id":"06217010","provincia":{"nombre":"Buenos Aires","id":"06"},"funcion":"CABECERA_DEPARTAMENTO","categoria":"Localidad simple","centroide":{"lat":-35.5770827047567,"lon":-58.0084847937359}},{"fuente":"INDEC","municipio":{"nombre":"Chascomús","id":"060218"},"departamento":{"nombre":"Chascomús","id":"06217"},"nombre":"Laguna Vitel","id":"06217015","provincia":{"nombre":"Buenos Aires","id":"06"},"funcion":null,"categoria":"Localidad simple","centroide":{"lat":-35.5404169288645,"lon":-58.1349194201314}},{"fuente":"INDEC","municipio":{"nombre":"Lezama","id":"060466"},"departamento":{"nombre":"Chascomús","id":"06217"},"nombre":"Manuel J. Cobo","id":"06217020","provincia":{"nombre":"Buenos Aires","id":"06"},"funcion":null,"categoria":"Localidad simple","centroide":{"lat":-35.8748248734085,"lon":-57.8964226760932}},{"fuente":"INDEC","municipio":{"nombre":"Chascomús","id":"060218"},"departamento":{"nombre":"Chascomús","id":"06217"},"nombre":"Villa Parque Girado","id":"06217030","provincia":{"nombre":"Buenos Aires","id":"06"},"funcion":null,"categoria":"Localidad simple","centroide":{"lat":-35.6282696386352,"lon":-58.0145524400059}},{"fuente":"INDEC","municipio":{"nombre":"Chivilcoy","id":"060224"},"departamento":{"nombre":"Chivilcoy","id":"06224"},"nombre":"Benitez","id":"06224005","provincia":{"nombre":"Buenos Aires","id":"06"},"funcion":null,"categoria":"Localidad simple","centroide":{"lat":-34.9660329017518,"lon":-60.1236385563996}},{"fuente":"INDEC","municipio":{"nombre":"Chivilcoy","id":"060224"},"departamento":{"nombre":"Chivilcoy","id":"06224"},"nombre":"Chivilcoy","id":"06224010","provincia":{"nombre":"Buenos Aires","id":"06"},"funcion":"CABECERA_DEPARTAMENTO","categoria":"Localidad simple","centroide":{"lat":-34.8980163772726,"lon":-60.0188841030321}},{"fuente":"INDEC","municipio":{"nombre":"Chivilcoy","id":"060224"},"departamento":{"nombre":"Chivilcoy","id":"06224"},"nombre":"Emilio Ayarza","id":"06224020","provincia":{"nombre":"Buenos Aires","id":"06"},"funcion":null,"categoria":"Localidad simple","centroide":{"lat":-34.746060108407,"lon":-60.0392314192743}},{"fuente":"INDEC","municipio":{"nombre":"Chivilcoy","id":"060224"},"departamento":{"nombre":"Chivilcoy","id":"06224"},"nombre":"Gorostiaga","id":"06224030","provincia":{"nombre":"Buenos Aires","id":"06"},"funcion":null,"categoria":"Localidad simple","centroide":{"lat":-34.839127302807,"lon":-59.8646671984292}},{"fuente":"INDEC","municipio":{"nombre":"Chivilcoy","id":"060224"},"departamento":{"nombre":"Chivilcoy","id":"06224"},"nombre":"La Rica","id":"06224040","provincia":{"nombre":"Buenos Aires","id":"06"},"funcion":null,"categoria":"Localidad simple","centroide":{"lat":-34.9739189538858,"lon":-59.8639302070489}},{"fuente":"INDEC","municipio":{"nombre":"Chivilcoy","id":"060224"},"departamento":{"nombre":"Chivilcoy","id":"06224"},"nombre":"Moquehuá","id":"06224050","provincia":{"nombre":"Buenos Aires","id":"06"},"funcion":null,"categoria":"Localidad simple","centroide":{"lat":-35.0926582854313,"lon":-59.7745302971612}},{"fuente":"INDEC","municipio":{"nombre":"Chivilcoy","id":"060224"},"departamento":{"nombre":"Chivilcoy","id":"06224"},"nombre":"Ramón Biaus","id":"06224060","provincia":{"nombre":"Buenos Aires","id":"06"},"funcion":null,"categoria":"Localidad simple","centroide":{"lat":-35.0858455213162,"lon":-59.9236682591743}},{"fuente":"INDEC","municipio":{"nombre":"Chivilcoy","id":"060224"},"departamento":{"nombre":"Chivilcoy","id":"06224"},"nombre":"San Sebastián","id":"06224070","provincia":{"nombre":"Buenos Aires","id":"06"},"funcion":null,"categoria":"Localidad simple","centroide":{"lat":-34.9443783815262,"lon":-59.7018597369347}},{"fuente":"INDEC","municipio":{"nombre":"Daireaux","id":"060231"},"departamento":{"nombre":"Daireaux","id":"06231"},"nombre":"Andant","id":"06231010","provincia":{"nombre":"Buenos Aires","id":"06"},"funcion":null,"categoria":"Localidad simple","centroide":{"lat":-36.5640579804658,"lon":-62.1324009778233}},{"fuente":"INDEC","municipio":{"nombre":"Daireaux","id":"060231"},"departamento":{"nombre":"Daireaux","id":"06231"},"nombre":"Arboledas","id":"06231020","provincia":{"nombre":"Buenos Aires","id":"06"},"funcion":null,"categoria":"Localidad simple","centroide":{"lat":-36.8827708539235,"lon":-61.4878179060517}},{"fuente":"INDEC","municipio":{"nombre":"Daireaux","id":"060231"},"departamento":{"nombre":"Daireaux","id":"06231"},"nombre":"Daireaux","id":"06231030","provincia":{"nombre":"Buenos Aires","id":"06"},"funcion":"CABECERA_DEPARTAMENTO","categoria":"Localidad simple","centroide":{"lat":-36.6001749213746,"lon":-61.7450132654369}},{"fuente":"INDEC","municipio":{"nombre":"Daireaux","id":"060231"},"departamento":{"nombre":"Daireaux","id":"06231"},"nombre":"La Larga","id":"06231040","provincia":{"nombre":"Buenos Aires","id":"06"},"funcion":null,"categoria":"Localidad simple","centroide":{"lat":-36.6749256386405,"lon":-61.9291952273289}},{"fuente":"INDEC","municipio":{"nombre":"Daireaux","id":"060231"},"departamento":{"nombre":"Daireaux","id":"06231"},"nombre":"Salazar","id":"06231060","provincia":{"nombre":"Buenos Aires","id":"06"},"funcion":null,"categoria":"Localidad simple","centroide":{"lat":-36.307117163487,"lon":-62.2003365899}},{"fuente":"INDEC","municipio":{"nombre":"Dolores","id":"060238"},"departamento":{"nombre":"Dolores","id":"06238"},"nombre":"Dolores","id":"06238010","provincia":{"nombre":"Buenos Aires","id":"06"},"funcion":"CABECERA_DEPARTAMENTO","categoria":"Localidad simple","centroide":{"lat":-36.3161215739926,"lon":-57.6752657333964}},{"fuente":"INDEC","municipio":{"nombre":"Dolores","id":"060238"},"departamento":{"nombre":"Dolores","id":"06238"},"nombre":"Sevigne","id":"06238020","provincia":{"nombre":"Buenos Aires","id":"06"},"funcion":null,"categoria":"Localidad simple","centroide":{"lat":-36.2067284269712,"lon":-57.7413707296745}},{"fuente":"INDEC","municipio":{"nombre":"Ensenada","id":"060245"},"departamento":{"nombre":"Ensenada","id":"06245"},"nombre":"Ensenada","id":"06245010","provincia":{"nombre":"Buenos Aires","id":"06"},"funcion":"CABECERA_DEPARTAMENTO","categoria":"Componente de localidad compuesta","centroide":{"lat":-34.859087650169,"lon":-57.9132063028971}},{"fuente":"INDEC","municipio":{"nombre":"Escobar","id":"060252"},"departamento":{"nombre":"Escobar","id":"06252"},"nombre":"Escobar","id":"06252010","provincia":{"nombre":"Buenos Aires","id":"06"},"funcion":"CABECERA_DEPARTAMENTO","categoria":"Componente de localidad compuesta","centroide":{"lat":-34.3478151482937,"lon":-58.792041970497}},{"fuente":"INDEC","municipio":{"nombre":"Esteban Echeverría","id":"060260"},"departamento":{"nombre":"Esteban Echeverría","id":"06260"},"nombre":"Esteban Echeverría","id":"06260010","provincia":{"nombre":"Buenos Aires","id":"06"},"funcion":"CABECERA_DEPARTAMENTO","categoria":"Componente de localidad compuesta","centroide":{"lat":-34.8182320587028,"lon":-58.4653924015445}},{"fuente":"INDEC","municipio":{"nombre":"Exaltación de la Cruz","id":"060266"},"departamento":{"nombre":"Exaltación de la Cruz","id":"06266"},"nombre":"Arroyo de la Cruz","id":"06266010","provincia":{"nombre":"Buenos Aires","id":"06"},"funcion":null,"categoria":"Localidad simple","centroide":{"lat":-34.3363786908945,"lon":-59.1094149717708}},{"fuente":"INDEC","municipio":{"nombre":"Exaltación de la Cruz","id":"060266"},"departamento":{"nombre":"Exaltación de la Cruz","id":"06266"},"nombre":"Capilla del Señor","id":"06266020","provincia":{"nombre":"Buenos Aires","id":"06"},"funcion":"CABECERA_DEPARTAMENTO","categoria":"Localidad simple","centroide":{"lat":-34.2912108668035,"lon":-59.1015232724441}},{"fuente":"INDEC","municipio":{"nombre":"Exaltación de la Cruz","id":"060266"},"departamento":{"nombre":"Exaltación de la Cruz","id":"06266"},"nombre":"Diego Gaynor","id":"06266030","provincia":{"nombre":"Buenos Aires","id":"06"},"funcion":null,"categoria":"Localidad simple","centroide":{"lat":-34.288973975279,"lon":-59.222781222713}},{"fuente":"INDEC","municipio":{"nombre":"Exaltación de la Cruz","id":"060266"},"departamento":{"nombre":"Exaltación de la Cruz","id":"06266"},"nombre":"Los Cardales","id":"06266040","provincia":{"nombre":"Buenos Aires","id":"06"},"funcion":null,"categoria":"Componente de localidad compuesta","centroide":{"lat":-34.3300736993853,"lon":-58.9885651588167}},{"fuente":"INDEC","municipio":{"nombre":"Exaltación de la Cruz","id":"060266"},"departamento":{"nombre":"Exaltación de la Cruz","id":"06266"},"nombre":"Parada Orlando","id":"06266050","provincia":{"nombre":"Buenos Aires","id":"06"},"funcion":null,"categoria":"Localidad simple","centroide":{"lat":-34.3273003551547,"lon":-59.0759905460337}},{"fuente":"INDEC","municipio":{"nombre":"Exaltación de la Cruz","id":"060266"},"departamento":{"nombre":"Exaltación de la Cruz","id":"06266"},"nombre":"Parada Robles - Pavón","id":"06266060","provincia":{"nombre":"Buenos Aires","id":"06"},"funcion":null,"categoria":"Componente de localidad compuesta","centroide":{"lat":-34.3751967438675,"lon":-59.1237945023542}},{"fuente":"INDEC","municipio":{"nombre":"Ezeiza","id":"060270"},"departamento":{"nombre":"José M. Ezeiza","id":"06270"},"nombre":"Ezeiza","id":"06270010","provincia":{"nombre":"Buenos Aires","id":"06"},"funcion":"CABECERA_DEPARTAMENTO","categoria":"Componente de localidad compuesta","centroide":{"lat":-34.8499164466297,"lon":-58.522884786315}},{"fuente":"INDEC","municipio":{"nombre":"Florencio Varela","id":"060274"},"departamento":{"nombre":"Florencio Varela","id":"06274"},"nombre":"Florencio Varela","id":"06274010","provincia":{"nombre":"Buenos Aires","id":"06"},"funcion":"CABECERA_DEPARTAMENTO","categoria":"Componente de localidad compuesta","centroide":{"lat":-34.8080028544593,"lon":-58.2762820744731}},{"fuente":"INDEC","municipio":{"nombre":"Florentino Ameghino","id":"060277"},"departamento":{"nombre":"Florentino Ameghino","id":"06277"},"nombre":"Blaquier","id":"06277010","provincia":{"nombre":"Buenos Aires","id":"06"},"funcion":null,"categoria":"Localidad simple","centroide":{"lat":-34.6356616332747,"lon":-62.4786821321875}},{"fuente":"INDEC","municipio":{"nombre":"Florentino Ameghino","id":"060277"},"departamento":{"nombre":"Florentino Ameghino","id":"06277"},"nombre":"Florentino Ameghino","id":"06277020","provincia":{"nombre":"Buenos Aires","id":"06"},"funcion":"CABECERA_DEPARTAMENTO","categoria":"Localidad simple","centroide":{"lat":-34.846677699169,"lon":-62.4671575805383}},{"fuente":"INDEC","municipio":{"nombre":"Florentino Ameghino","id":"060277"},"departamento":{"nombre":"Florentino Ameghino","id":"06277"},"nombre":"Porvenir","id":"06277030","provincia":{"nombre":"Buenos Aires","id":"06"},"funcion":null,"categoria":"Localidad simple","centroide":{"lat":-34.9522292183733,"lon":-62.2174229886621}},{"fuente":"INDEC","municipio":{"nombre":"General Alvarado","id":"060280"},"departamento":{"nombre":"General Alvarado","id":"06280"},"nombre":"Centinela del Mar","id":"06280005","provincia":{"nombre":"Buenos Aires","id":"06"},"funcion":null,"categoria":"Localidad simple","centroide":{"lat":-38.4348806367321,"lon":-58.216863731472}},{"fuente":"INDEC","municipio":{"nombre":"General Alvarado","id":"060280"},"departamento":{"nombre":"General Alvarado","id":"06280"},"nombre":"Comandante Nicanor Otamendi","id":"06280010","provincia":{"nombre":"Buenos Aires","id":"06"},"funcion":null,"categoria":"Localidad simple","centroide":{"lat":-38.1119335118514,"lon":-57.8415353121543}},{"fuente":"INDEC","municipio":{"nombre":"General Alvarado","id":"060280"},"departamento":{"nombre":"General Alvarado","id":"06280"},"nombre":"Mar del Sur","id":"06280020","provincia":{"nombre":"Buenos Aires","id":"06"},"funcion":null,"categoria":"Localidad simple","centroide":{"lat":-38.3446881533109,"lon":-57.9920393065731}},{"fuente":"INDEC","municipio":{"nombre":"General Alvarado","id":"060280"},"departamento":{"nombre":"General Alvarado","id":"06280"},"nombre":"Mechongué","id":"06280030","provincia":{"nombre":"Buenos Aires","id":"06"},"funcion":null,"categoria":"Localidad simple","centroide":{"lat":-38.1486545138318,"lon":-58.2230121065801}},{"fuente":"INDEC","municipio":{"nombre":"General Alvarado","id":"060280"},"departamento":{"nombre":"General Alvarado","id":"06280"},"nombre":"Miramar","id":"06280040","provincia":{"nombre":"Buenos Aires","id":"06"},"funcion":"CABECERA_DEPARTAMENTO","categoria":"Componente de localidad compuesta","centroide":{"lat":-38.2707429318083,"lon":-57.8404714577536}},{"fuente":"INDEC","municipio":{"nombre":"General Alvear","id":"060287"},"departamento":{"nombre":"General Alvear","id":"06287"},"nombre":"General Alvear","id":"06287010","provincia":{"nombre":"Buenos Aires","id":"06"},"funcion":"CABECERA_DEPARTAMENTO","categoria":"Localidad simple","centroide":{"lat":-36.0229384341366,"lon":-60.0147935726886}},{"fuente":"INDEC","municipio":{"nombre":"General Arenales","id":"060294"},"departamento":{"nombre":"General Arenales","id":"06294"},"nombre":"Arribeños","id":"06294010","provincia":{"nombre":"Buenos Aires","id":"06"},"funcion":null,"categoria":"Localidad simple","centroide":{"lat":-34.2101542565966,"lon":-61.3548577979495}},{"fuente":"INDEC","municipio":{"nombre":"General Arenales","id":"060294"},"departamento":{"nombre":"General Arenales","id":"06294"},"nombre":"Ascensión","id":"06294020","provincia":{"nombre":"Buenos Aires","id":"06"},"funcion":null,"categoria":"Localidad simple","centroide":{"lat":-34.2368758979793,"lon":-61.103613881133}},{"fuente":"INDEC","municipio":{"nombre":"General Arenales","id":"060294"},"departamento":{"nombre":"General Arenales","id":"06294"},"nombre":"Estación Arenales","id":"06294030","provincia":{"nombre":"Buenos Aires","id":"06"},"funcion":null,"categoria":"Localidad simple","centroide":{"lat":-34.2698455922697,"lon":-61.2926718130401}},{"fuente":"INDEC","municipio":{"nombre":"General Arenales","id":"060294"},"departamento":{"nombre":"General Arenales","id":"06294"},"nombre":"Ferré","id":"06294040","provincia":{"nombre":"Buenos Aires","id":"06"},"funcion":null,"categoria":"Localidad simple","centroide":{"lat":-34.1250383813873,"lon":-61.132654886464}},{"fuente":"INDEC","municipio":{"nombre":"General Arenales","id":"060294"},"departamento":{"nombre":"General Arenales","id":"06294"},"nombre":"General Arenales","id":"06294050","provincia":{"nombre":"Buenos Aires","id":"06"},"funcion":"CABECERA_DEPARTAMENTO","categoria":"Localidad simple","centroide":{"lat":-34.3044679711076,"lon":-61.3056277788216}},{"fuente":"INDEC","municipio":{"nombre":"General Arenales","id":"060294"},"departamento":{"nombre":"General Arenales","id":"06294"},"nombre":"La Angelita","id":"06294060","provincia":{"nombre":"Buenos Aires","id":"06"},"funcion":null,"categoria":"Localidad simple","centroide":{"lat":-34.2608740726731,"lon":-60.9685988224111}},{"fuente":"INDEC","municipio":{"nombre":"General Arenales","id":"060294"},"departamento":{"nombre":"General Arenales","id":"06294"},"nombre":"La Trinidad","id":"06294070","provincia":{"nombre":"Buenos Aires","id":"06"},"funcion":null,"categoria":"Localidad simple","centroide":{"lat":-34.1068549430168,"lon":-61.1317020714356}},{"fuente":"INDEC","municipio":{"nombre":"General Belgrano","id":"060301"},"departamento":{"nombre":"General Belgrano","id":"06301"},"nombre":"General Belgrano","id":"06301010","provincia":{"nombre":"Buenos Aires","id":"06"},"funcion":"CABECERA_DEPARTAMENTO","categoria":"Localidad simple","centroide":{"lat":-35.7694577358026,"lon":-58.4944615102033}},{"fuente":"INDEC","municipio":{"nombre":"General Belgrano","id":"060301"},"departamento":{"nombre":"General Belgrano","id":"06301"},"nombre":"Gorchs","id":"06301020","provincia":{"nombre":"Buenos Aires","id":"06"},"funcion":null,"categoria":"Localidad simple","centroide":{"lat":-35.6733729629116,"lon":-58.9582999568816}},{"fuente":"INDEC","municipio":{"nombre":"General Guido","id":"060308"},"departamento":{"nombre":"General Guido","id":"06308"},"nombre":"General Guido","id":"06308010","provincia":{"nombre":"Buenos Aires","id":"06"},"funcion":"CABECERA_DEPARTAMENTO","categoria":"Localidad simple","centroide":{"lat":-36.6431651777016,"lon":-57.790501903704}},{"fuente":"INDEC","municipio":{"nombre":"General Guido","id":"060308"},"departamento":{"nombre":"General Guido","id":"06308"},"nombre":"Labardén","id":"06308020","provincia":{"nombre":"Buenos Aires","id":"06"},"funcion":null,"categoria":"Localidad simple","centroide":{"lat":-36.9489668508722,"lon":-58.1035671819428}},{"fuente":"INDEC","municipio":{"nombre":"General Juan Madariaga","id":"060315"},"departamento":{"nombre":"General Juan Madariaga","id":"06315"},"nombre":"General Juan Madariaga","id":"06315010","provincia":{"nombre":"Buenos Aires","id":"06"},"funcion":"CABECERA_DEPARTAMENTO","categoria":"Localidad simple","centroide":{"lat":-36.9956399453583,"lon":-57.1364809577407}},{"fuente":"INDEC","municipio":{"nombre":"General la Madrid","id":"060322"},"departamento":{"nombre":"General La Madrid","id":"06322"},"nombre":"General La Madrid","id":"06322010","provincia":{"nombre":"Buenos Aires","id":"06"},"funcion":"CABECERA_DEPARTAMENTO","categoria":"Localidad simple","centroide":{"lat":-37.2503992475804,"lon":-61.2595794125711}},{"fuente":"INDEC","municipio":{"nombre":"General la Madrid","id":"060322"},"departamento":{"nombre":"General La Madrid","id":"06322"},"nombre":"La Colina","id":"06322020","provincia":{"nombre":"Buenos Aires","id":"06"},"funcion":null,"categoria":"Localidad simple","centroide":{"lat":-37.3607690235166,"lon":-61.5348487870647}},{"fuente":"INDEC","municipio":{"nombre":"General la Madrid","id":"060322"},"departamento":{"nombre":"General La Madrid","id":"06322"},"nombre":"Las Martinetas","id":"06322030","provincia":{"nombre":"Buenos Aires","id":"06"},"funcion":null,"categoria":"Localidad simple","centroide":{"lat":-37.1980813542863,"lon":-61.1220424031556}},{"fuente":"INDEC","municipio":{"nombre":"General la Madrid","id":"060322"},"departamento":{"nombre":"General La Madrid","id":"06322"},"nombre":"Líbano","id":"06322040","provincia":{"nombre":"Buenos Aires","id":"06"},"funcion":null,"categoria":"Localidad simple","centroide":{"lat":-37.53362138441,"lon":-61.2865750087495}},{"fuente":"INDEC","municipio":{"nombre":"General la Madrid","id":"060322"},"departamento":{"nombre":"General La Madrid","id":"06322"},"nombre":"Pontaut","id":"06322050","provincia":{"nombre":"Buenos Aires","id":"06"},"funcion":null,"categoria":"Localidad simple","centroide":{"lat":-37.7317699033739,"lon":-61.3230957170244}},{"fuente":"INDEC","municipio":{"nombre":"General las Heras","id":"060329"},"departamento":{"nombre":"General Las Heras","id":"06329"},"nombre":"General Hornos","id":"06329010","provincia":{"nombre":"Buenos Aires","id":"06"},"funcion":null,"categoria":"Localidad simple","centroide":{"lat":-34.8937763345299,"lon":-58.9172215319327}},{"fuente":"INDEC","municipio":{"nombre":"General las Heras","id":"060329"},"departamento":{"nombre":"General Las Heras","id":"06329"},"nombre":"General Las Heras","id":"06329020","provincia":{"nombre":"Buenos Aires","id":"06"},"funcion":"CABECERA_DEPARTAMENTO","categoria":"Localidad simple","centroide":{"lat":-34.9267739074255,"lon":-58.9453407851291}},{"fuente":"INDEC","municipio":{"nombre":"General las Heras","id":"060329"},"departamento":{"nombre":"General Las Heras","id":"06329"},"nombre":"La Choza","id":"06329030","provincia":{"nombre":"Buenos Aires","id":"06"},"funcion":null,"categoria":"Localidad simple","centroide":{"lat":-34.7829908276155,"lon":-59.1095647693247}},{"fuente":"INDEC","municipio":{"nombre":"General las Heras","id":"060329"},"departamento":{"nombre":"General Las Heras","id":"06329"},"nombre":"Plomer","id":"06329050","provincia":{"nombre":"Buenos Aires","id":"06"},"funcion":null,"categoria":"Localidad simple","centroide":{"lat":-34.7941193667757,"lon":-59.0279756935744}},{"fuente":"INDEC","municipio":{"nombre":"General las Heras","id":"060329"},"departamento":{"nombre":"General Las Heras","id":"06329"},"nombre":"Villars","id":"06329060","provincia":{"nombre":"Buenos Aires","id":"06"},"funcion":null,"categoria":"Localidad simple","centroide":{"lat":-34.8300241949658,"lon":-58.9422589402025}},{"fuente":"INDEC","municipio":{"nombre":"General Lavalle","id":"060336"},"departamento":{"nombre":"General Lavalle","id":"06336"},"nombre":"General Lavalle","id":"06336020","provincia":{"nombre":"Buenos Aires","id":"06"},"funcion":"CABECERA_DEPARTAMENTO","categoria":"Localidad simple","centroide":{"lat":-36.4080851872455,"lon":-56.9433553335053}},{"fuente":"INDEC","municipio":{"nombre":"General Lavalle","id":"060336"},"departamento":{"nombre":"General Lavalle","id":"06336"},"nombre":"Pavón","id":"06336030","provincia":{"nombre":"Buenos Aires","id":"06"},"funcion":null,"categoria":"Localidad simple","centroide":{"lat":-36.7089537726649,"lon":-56.7598433617574}},{"fuente":"INDEC","municipio":{"nombre":"General Paz","id":"060343"},"departamento":{"nombre":"General Paz","id":"06343"},"nombre":"Barrio Río Salado","id":"06343010","provincia":{"nombre":"Buenos Aires","id":"06"},"funcion":null,"categoria":"Localidad simple","centroide":{"lat":-35.6936377582584,"lon":-58.447313612508}},{"fuente":"INDEC","municipio":{"nombre":"General Paz","id":"060343"},"departamento":{"nombre":"General Paz","id":"06343"},"nombre":"Loma Verde","id":"06343020","provincia":{"nombre":"Buenos Aires","id":"06"},"funcion":null,"categoria":"Localidad simple","centroide":{"lat":-35.2747490125694,"lon":-58.4041701894263}},{"fuente":"INDEC","municipio":{"nombre":"General Paz","id":"060343"},"departamento":{"nombre":"General Paz","id":"06343"},"nombre":"Ranchos","id":"06343030","provincia":{"nombre":"Buenos Aires","id":"06"},"funcion":"CABECERA_DEPARTAMENTO","categoria":"Localidad simple","centroide":{"lat":-35.5173520233652,"lon":-58.3184247148652}},{"fuente":"INDEC","municipio":{"nombre":"General Paz","id":"060343"},"departamento":{"nombre":"General Paz","id":"06343"},"nombre":"Villanueva","id":"06343040","provincia":{"nombre":"Buenos Aires","id":"06"},"funcion":null,"categoria":"Localidad simple","centroide":{"lat":-35.6776271050908,"lon":-58.4350923167562}},{"fuente":"INDEC","municipio":{"nombre":"General Pinto","id":"060351"},"departamento":{"nombre":"General Pinto","id":"06351"},"nombre":"Colonia San Ricardo","id":"06351010","provincia":{"nombre":"Buenos Aires","id":"06"},"funcion":null,"categoria":"Localidad simple","centroide":{"lat":-34.4162137301573,"lon":-61.9280141749282}},{"fuente":"INDEC","municipio":{"nombre":"General Pinto","id":"060351"},"departamento":{"nombre":"General Pinto","id":"06351"},"nombre":"General Pinto","id":"06351020","provincia":{"nombre":"Buenos Aires","id":"06"},"funcion":"CABECERA_DEPARTAMENTO","categoria":"Localidad simple","centroide":{"lat":-34.764155990724,"lon":-61.8900674920122}},{"fuente":"INDEC","municipio":{"nombre":"General Pinto","id":"060351"},"departamento":{"nombre":"General Pinto","id":"06351"},"nombre":"Germania","id":"06351030","provincia":{"nombre":"Buenos Aires","id":"06"},"funcion":null,"categoria":"Localidad simple","centroide":{"lat":-34.5761118332769,"lon":-62.0518306894073}},{"fuente":"INDEC","municipio":{"nombre":"General Pinto","id":"060351"},"departamento":{"nombre":"General Pinto","id":"06351"},"nombre":"Gunther","id":"06351035","provincia":{"nombre":"Buenos Aires","id":"06"},"funcion":null,"categoria":"Localidad simple","centroide":{"lat":-34.5994995308259,"lon":-61.9164989081536}},{"fuente":"INDEC","municipio":{"nombre":"General Pinto","id":"060351"},"departamento":{"nombre":"General Pinto","id":"06351"},"nombre":"Villa Francia","id":"06351040","provincia":{"nombre":"Buenos Aires","id":"06"},"funcion":null,"categoria":"Localidad simple","centroide":{"lat":-34.7913160212074,"lon":-62.2011090686366}},{"fuente":"INDEC","municipio":{"nombre":"General Pinto","id":"060351"},"departamento":{"nombre":"General Pinto","id":"06351"},"nombre":"Villa Roth","id":"06351050","provincia":{"nombre":"Buenos Aires","id":"06"},"funcion":null,"categoria":"Localidad simple","centroide":{"lat":-34.5798302278832,"lon":-62.1710489234118}},{"fuente":"INDEC","municipio":{"nombre":"General Pueyrredón","id":"060357"},"departamento":{"nombre":"General Pueyrredón","id":"06357"},"nombre":"Barrio El Boquerón","id":"06357020","provincia":{"nombre":"Buenos Aires","id":"06"},"funcion":null,"categoria":"Localidad simple","centroide":{"lat":-38.0297229162982,"lon":-57.7995485049706}},{"fuente":"INDEC","municipio":{"nombre":"General Pueyrredón","id":"060357"},"departamento":{"nombre":"General Pueyrredón","id":"06357"},"nombre":"Barrio La Gloria","id":"06357050","provincia":{"nombre":"Buenos Aires","id":"06"},"funcion":null,"categoria":"Localidad simple","centroide":{"lat":-37.9068268303117,"lon":-57.7858860640391}},{"fuente":"INDEC","municipio":{"nombre":"General Pueyrredón","id":"060357"},"departamento":{"nombre":"General Pueyrredón","id":"06357"},"nombre":"Barrio Santa Paula","id":"06357060","provincia":{"nombre":"Buenos Aires","id":"06"},"funcion":null,"categoria":"Localidad simple","centroide":{"lat":-37.9317157840639,"lon":-57.683162032898}},{"fuente":"INDEC","municipio":{"nombre":"General Pueyrredón","id":"060357"},"departamento":{"nombre":"General Pueyrredón","id":"06357"},"nombre":"Batán","id":"06357070","provincia":{"nombre":"Buenos Aires","id":"06"},"funcion":null,"categoria":"Localidad simple","centroide":{"lat":-38.0086211557,"lon":-57.7085500402678}},{"fuente":"INDEC","municipio":{"nombre":"General Pueyrredón","id":"060357"},"departamento":{"nombre":"General Pueyrredón","id":"06357"},"nombre":"Chapadmalal","id":"06357080","provincia":{"nombre":"Buenos Aires","id":"06"},"funcion":null,"categoria":"Localidad simple","centroide":{"lat":-38.1757779275595,"lon":-57.6513390003209}},{"fuente":"INDEC","municipio":{"nombre":"General Pueyrredón","id":"060357"},"departamento":{"nombre":"General Pueyrredón","id":"06357"},"nombre":"El Marquesado","id":"06357090","provincia":{"nombre":"Buenos Aires","id":"06"},"funcion":null,"categoria":"Componente de localidad compuesta","centroide":{"lat":-38.2369312519788,"lon":-57.7634180779219}},{"fuente":"INDEC","municipio":{"nombre":"General Pueyrredón","id":"060357"},"departamento":{"nombre":"General Pueyrredón","id":"06357"},"nombre":"Estación Chapadmalal","id":"06357100","provincia":{"nombre":"Buenos Aires","id":"06"},"funcion":null,"categoria":"Localidad simple","centroide":{"lat":-38.036727731373,"lon":-57.7129897398616}},{"fuente":"INDEC","municipio":{"nombre":"General Pueyrredón","id":"060357"},"departamento":{"nombre":"General Pueyrredón","id":"06357"},"nombre":"Mar del Plata","id":"06357110","provincia":{"nombre":"Buenos Aires","id":"06"},"funcion":"CABECERA_DEPARTAMENTO","categoria":"Localidad simple","centroide":{"lat":-37.9988640075371,"lon":-57.547532938743}},{"fuente":"INDEC","municipio":{"nombre":"General Pueyrredón","id":"060357"},"departamento":{"nombre":"General Pueyrredón","id":"06357"},"nombre":"Sierra de los Padres","id":"06357120","provincia":{"nombre":"Buenos Aires","id":"06"},"funcion":null,"categoria":"Localidad simple","centroide":{"lat":-37.954166706805,"lon":-57.7715971022228}},{"fuente":"INDEC","municipio":{"nombre":"General Rodríguez","id":"060364"},"departamento":{"nombre":"General Rodríguez","id":"06364"},"nombre":"General Rodríguez","id":"06364030","provincia":{"nombre":"Buenos Aires","id":"06"},"funcion":"CABECERA_DEPARTAMENTO","categoria":"Componente de localidad compuesta","centroide":{"lat":-34.6079239021062,"lon":-58.950282039134}},{"fuente":"INDEC","municipio":{"nombre":"General San Martín","id":"060371"},"departamento":{"nombre":"Ciudad Libertador San Martín","id":"06371"},"nombre":"General San Martín","id":"06371010","provincia":{"nombre":"Buenos Aires","id":"06"},"funcion":"CABECERA_DEPARTAMENTO","categoria":"Componente de localidad compuesta","centroide":{"lat":-34.5696533775117,"lon":-58.5349543497109}},{"fuente":"INDEC","municipio":{"nombre":"General Viamonte","id":"060385"},"departamento":{"nombre":"General Viamonte","id":"06385"},"nombre":"Baigorrita","id":"06385010","provincia":{"nombre":"Buenos Aires","id":"06"},"funcion":null,"categoria":"Localidad simple","centroide":{"lat":-34.7472686783062,"lon":-60.9889526585307}},{"fuente":"INDEC","municipio":{"nombre":"General Viamonte","id":"060385"},"departamento":{"nombre":"General Viamonte","id":"06385"},"nombre":"La Delfina","id":"06385020","provincia":{"nombre":"Buenos Aires","id":"06"},"funcion":null,"categoria":"Localidad simple","centroide":{"lat":-34.9437720137007,"lon":-61.1588643543904}},{"fuente":"INDEC","municipio":{"nombre":"General Viamonte","id":"060385"},"departamento":{"nombre":"General Viamonte","id":"06385"},"nombre":"Los Toldos","id":"06385030","provincia":{"nombre":"Buenos Aires","id":"06"},"funcion":"CABECERA_DEPARTAMENTO","categoria":"Localidad simple","centroide":{"lat":-35.0010365651503,"lon":-61.0381497866181}},{"fuente":"INDEC","municipio":{"nombre":"General Viamonte","id":"060385"},"departamento":{"nombre":"General Viamonte","id":"06385"},"nombre":"San Emilio","id":"06385040","provincia":{"nombre":"Buenos Aires","id":"06"},"funcion":null,"categoria":"Localidad simple","centroide":{"lat":-35.0319914044113,"lon":-60.8647685857183}},{"fuente":"INDEC","municipio":{"nombre":"General Viamonte","id":"060385"},"departamento":{"nombre":"General Viamonte","id":"06385"},"nombre":"Zavalía","id":"06385050","provincia":{"nombre":"Buenos Aires","id":"06"},"funcion":null,"categoria":"Localidad simple","centroide":{"lat":-34.8949208760254,"lon":-61.0044538243488}},{"fuente":"INDEC","municipio":{"nombre":"General Villegas","id":"060392"},"departamento":{"nombre":"General Villegas","id":"06392"},"nombre":"Banderaló","id":"06392010","provincia":{"nombre":"Buenos Aires","id":"06"},"funcion":null,"categoria":"Localidad simple","centroide":{"lat":-35.0124666610174,"lon":-63.3741563457185}},{"fuente":"INDEC","municipio":{"nombre":"General Villegas","id":"060392"},"departamento":{"nombre":"General Villegas","id":"06392"},"nombre":"Cañada Seca","id":"06392020","provincia":{"nombre":"Buenos Aires","id":"06"},"funcion":null,"categoria":"Localidad simple","centroide":{"lat":-34.4155054560621,"lon":-62.9618553806295}},{"fuente":"INDEC","municipio":{"nombre":"General Villegas","id":"060392"},"departamento":{"nombre":"General Villegas","id":"06392"},"nombre":"Coronel Charlone","id":"06392030","provincia":{"nombre":"Buenos Aires","id":"06"},"funcion":null,"categoria":"Localidad simple","centroide":{"lat":-34.672994561958,"lon":-63.3724454840571}},{"fuente":"INDEC","municipio":{"nombre":"General Villegas","id":"060392"},"departamento":{"nombre":"General Villegas","id":"06392"},"nombre":"Emilio V. Bunge","id":"06392040","provincia":{"nombre":"Buenos Aires","id":"06"},"funcion":null,"categoria":"Localidad simple","centroide":{"lat":-34.7798328261907,"lon":-63.1960964862342}},{"fuente":"INDEC","municipio":{"nombre":"General Villegas","id":"060392"},"departamento":{"nombre":"General Villegas","id":"06392"},"nombre":"General Villegas","id":"06392050","provincia":{"nombre":"Buenos Aires","id":"06"},"funcion":"CABECERA_DEPARTAMENTO","categoria":"Localidad simple","centroide":{"lat":-35.0338419886306,"lon":-63.014663710753}},{"fuente":"INDEC","municipio":{"nombre":"General Villegas","id":"060392"},"departamento":{"nombre":"General Villegas","id":"06392"},"nombre":"Massey","id":"06392060","provincia":{"nombre":"Buenos Aires","id":"06"},"funcion":null,"categoria":"Localidad simple","centroide":{"lat":-35.0490892294374,"lon":-63.1218876844045}},{"fuente":"INDEC","municipio":{"nombre":"General Villegas","id":"060392"},"departamento":{"nombre":"General Villegas","id":"06392"},"nombre":"Pichincha","id":"06392070","provincia":{"nombre":"Buenos Aires","id":"06"},"funcion":null,"categoria":"Localidad simple","centroide":{"lat":-34.5804516676438,"lon":-62.3516395240412}},{"fuente":"INDEC","municipio":{"nombre":"General Villegas","id":"060392"},"departamento":{"nombre":"General Villegas","id":"06392"},"nombre":"Piedritas","id":"06392080","provincia":{"nombre":"Buenos Aires","id":"06"},"funcion":null,"categoria":"Localidad simple","centroide":{"lat":-34.771104540922,"lon":-62.9846965760316}},{"fuente":"INDEC","municipio":{"nombre":"General Villegas","id":"060392"},"departamento":{"nombre":"General Villegas","id":"06392"},"nombre":"Santa Eleodora","id":"06392090","provincia":{"nombre":"Buenos Aires","id":"06"},"funcion":null,"categoria":"Localidad simple","centroide":{"lat":-34.6921180067125,"lon":-62.6957932681386}},{"fuente":"INDEC","municipio":{"nombre":"General Villegas","id":"060392"},"departamento":{"nombre":"General Villegas","id":"06392"},"nombre":"Santa Regina","id":"06392100","provincia":{"nombre":"Buenos Aires","id":"06"},"funcion":null,"categoria":"Localidad simple","centroide":{"lat":-34.548335663977,"lon":-63.1732728724567}},{"fuente":"INDEC","municipio":{"nombre":"General Villegas","id":"060392"},"departamento":{"nombre":"General Villegas","id":"06392"},"nombre":"Villa Saboya","id":"06392110","provincia":{"nombre":"Buenos Aires","id":"06"},"funcion":null,"categoria":"Localidad simple","centroide":{"lat":-34.4607916334895,"lon":-62.649344456796}},{"fuente":"INDEC","municipio":{"nombre":"General Villegas","id":"060392"},"departamento":{"nombre":"General Villegas","id":"06392"},"nombre":"Villa Sauze","id":"06392120","provincia":{"nombre":"Buenos Aires","id":"06"},"funcion":null,"categoria":"Localidad simple","centroide":{"lat":-35.2858298200472,"lon":-63.3682055476167}},{"fuente":"INDEC","municipio":{"nombre":"Guaminí","id":"060399"},"departamento":{"nombre":"Guaminí","id":"06399"},"nombre":"Arroyo Venado","id":"06399010","provincia":{"nombre":"Buenos Aires","id":"06"},"funcion":null,"categoria":"Localidad simple","centroide":{"lat":-37.0864662845331,"lon":-62.5391482291111}},{"fuente":"INDEC","municipio":{"nombre":"Guaminí","id":"060399"},"departamento":{"nombre":"Guaminí","id":"06399"},"nombre":"Casbas","id":"06399020","provincia":{"nombre":"Buenos Aires","id":"06"},"funcion":null,"categoria":"Localidad simple","centroide":{"lat":-36.7580953396186,"lon":-62.5017754084549}},{"fuente":"INDEC","municipio":{"nombre":"Guaminí","id":"060399"},"departamento":{"nombre":"Guaminí","id":"06399"},"nombre":"Garré","id":"06399030","provincia":{"nombre":"Buenos Aires","id":"06"},"funcion":null,"categoria":"Localidad simple","centroide":{"lat":-36.5604378772819,"lon":-62.5981120377825}},{"fuente":"INDEC","municipio":{"nombre":"Guaminí","id":"060399"},"departamento":{"nombre":"Guaminí","id":"06399"},"nombre":"Guaminí","id":"06399040","provincia":{"nombre":"Buenos Aires","id":"06"},"funcion":"CABECERA_DEPARTAMENTO","categoria":"Localidad simple","centroide":{"lat":-37.0120881308673,"lon":-62.4166857296556}},{"fuente":"INDEC","municipio":{"nombre":"Guaminí","id":"060399"},"departamento":{"nombre":"Guaminí","id":"06399"},"nombre":"Laguna Alsina","id":"06399050","provincia":{"nombre":"Buenos Aires","id":"06"},"funcion":null,"categoria":"Localidad simple","centroide":{"lat":-36.80905243808,"lon":-62.2451480754422}},{"fuente":"INDEC","municipio":{"nombre":"Hipólito Yrigoyen","id":"060406"},"departamento":{"nombre":"Hipólito Yrigoyen","id":"06406"},"nombre":"Henderson","id":"06406010","provincia":{"nombre":"Buenos Aires","id":"06"},"funcion":"CABECERA_DEPARTAMENTO","categoria":"Localidad simple","centroide":{"lat":-36.2994630370091,"lon":-61.7178401805261}},{"fuente":"INDEC","municipio":{"nombre":"Hipólito Yrigoyen","id":"060406"},"departamento":{"nombre":"Hipólito Yrigoyen","id":"06406"},"nombre":"Herrera Vegas","id":"06406020","provincia":{"nombre":"Buenos Aires","id":"06"},"funcion":null,"categoria":"Localidad simple","centroide":{"lat":-36.0883254041476,"lon":-61.4112500767202}},{"fuente":"INDEC","municipio":{"nombre":"Hurlingham","id":"060408"},"departamento":{"nombre":"Hurlingham","id":"06408"},"nombre":"Hurlingham","id":"06408010","provincia":{"nombre":"Buenos Aires","id":"06"},"funcion":"CABECERA_DEPARTAMENTO","categoria":"Componente de localidad compuesta","centroide":{"lat":-34.5926049478957,"lon":-58.6334584554374}},{"fuente":"INDEC","municipio":{"nombre":"Ituzaingó","id":"060410"},"departamento":{"nombre":"Ituzaingó","id":"06410"},"nombre":"Ituzaingó","id":"06410010","provincia":{"nombre":"Buenos Aires","id":"06"},"funcion":"CABECERA_DEPARTAMENTO","categoria":"Componente de localidad compuesta","centroide":{"lat":-34.6625047224141,"lon":-58.6660777676772}},{"fuente":"INDEC","municipio":{"nombre":"José C. Paz","id":"060412"},"departamento":{"nombre":"José C. Paz","id":"06412"},"nombre":"José C. Paz","id":"06412010","provincia":{"nombre":"Buenos Aires","id":"06"},"funcion":"CABECERA_DEPARTAMENTO","categoria":"Componente de localidad compuesta","centroide":{"lat":-34.5193349747122,"lon":-58.7497681367601}},{"fuente":"INDEC","municipio":{"nombre":"Junín","id":"060413"},"departamento":{"nombre":"Junín","id":"06413"},"nombre":"Agustín Roca","id":"06413010","provincia":{"nombre":"Buenos Aires","id":"06"},"funcion":null,"categoria":"Localidad simple","centroide":{"lat":-34.508084406003,"lon":-60.8648956546313}},{"fuente":"INDEC","municipio":{"nombre":"Junín","id":"060413"},"departamento":{"nombre":"Junín","id":"06413"},"nombre":"Agustina","id":"06413020","provincia":{"nombre":"Buenos Aires","id":"06"},"funcion":null,"categoria":"Localidad simple","centroide":{"lat":-34.4607068571169,"lon":-61.067072329925}},{"fuente":"INDEC","municipio":{"nombre":"Junín","id":"060413"},"departamento":{"nombre":"Junín","id":"06413"},"nombre":"Balneario Laguna de Gómez","id":"06413030","provincia":{"nombre":"Buenos Aires","id":"06"},"funcion":null,"categoria":"Localidad simple","centroide":{"lat":-34.6606435780718,"lon":-61.0183645929666}},{"fuente":"INDEC","municipio":{"nombre":"Junín","id":"060413"},"departamento":{"nombre":"Junín","id":"06413"},"nombre":"Fortín Tiburcio","id":"06413040","provincia":{"nombre":"Buenos Aires","id":"06"},"funcion":null,"categoria":"Localidad simple","centroide":{"lat":-34.3467322372427,"lon":-61.1310781728463}},{"fuente":"INDEC","municipio":{"nombre":"Junín","id":"060413"},"departamento":{"nombre":"Junín","id":"06413"},"nombre":"Junín","id":"06413050","provincia":{"nombre":"Buenos Aires","id":"06"},"funcion":"CABECERA_DEPARTAMENTO","categoria":"Localidad simple","centroide":{"lat":-34.5838316271397,"lon":-60.9472651715326}},{"fuente":"INDEC","municipio":{"nombre":"Junín","id":"060413"},"departamento":{"nombre":"Junín","id":"06413"},"nombre":"Paraje La Agraria","id":"06413055","provincia":{"nombre":"Buenos Aires","id":"06"},"funcion":null,"categoria":"Localidad simple","centroide":{"lat":-34.6564145153102,"lon":-60.8466681579607}},{"fuente":"INDEC","municipio":{"nombre":"Junín","id":"060413"},"departamento":{"nombre":"Junín","id":"06413"},"nombre":"Laplacette","id":"06413060","provincia":{"nombre":"Buenos Aires","id":"06"},"funcion":null,"categoria":"Localidad simple","centroide":{"lat":-34.7245238530675,"lon":-61.1553171474145}},{"fuente":"INDEC","municipio":{"nombre":"Junín","id":"060413"},"departamento":{"nombre":"Junín","id":"06413"},"nombre":"Saforcada","id":"06413080","provincia":{"nombre":"Buenos Aires","id":"06"},"funcion":null,"categoria":"Localidad simple","centroide":{"lat":-34.5752591285936,"lon":-61.0747308195452}},{"fuente":"INDEC","municipio":{"nombre":"La Costa","id":"060420"},"departamento":{"nombre":"La Costa","id":"06420"},"nombre":"Las Toninas","id":"06420010","provincia":{"nombre":"Buenos Aires","id":"06"},"funcion":null,"categoria":"Localidad simple","centroide":{"lat":-36.4883976285615,"lon":-56.7004352579533}},{"fuente":"INDEC","municipio":{"nombre":"La Costa","id":"060420"},"departamento":{"nombre":"La Costa","id":"06420"},"nombre":"Mar de Ajó - San Bernardo","id":"06420020","provincia":{"nombre":"Buenos Aires","id":"06"},"funcion":null,"categoria":"Localidad simple","centroide":{"lat":-36.7234307065769,"lon":-56.6771596535959}},{"fuente":"INDEC","municipio":{"nombre":"La Costa","id":"060420"},"departamento":{"nombre":"La Costa","id":"06420"},"nombre":"San Clemente del Tuyú","id":"06420030","provincia":{"nombre":"Buenos Aires","id":"06"},"funcion":null,"categoria":"Componente de localidad compuesta","centroide":{"lat":-36.3532388310754,"lon":-56.723944139417}},{"fuente":"INDEC","municipio":{"nombre":"La Costa","id":"060420"},"departamento":{"nombre":"La Costa","id":"06420"},"nombre":"Santa Teresita - Mar del Tuyú","id":"06420040","provincia":{"nombre":"Buenos Aires","id":"06"},"funcion":"CABECERA_DEPARTAMENTO","categoria":"Localidad simple","centroide":{"lat":-36.577496173436,"lon":-56.6926713688296}},{"fuente":"INDEC","municipio":{"nombre":"La Matanza","id":"060427"},"departamento":{"nombre":"La Matanza","id":"06427"},"nombre":"La Matanza","id":"06427010","provincia":{"nombre":"Buenos Aires","id":"06"},"funcion":"CABECERA_DEPARTAMENTO","categoria":"Componente de localidad compuesta","centroide":{"lat":-34.6764437241804,"lon":-58.5603685341933}},{"fuente":"INDEC","municipio":{"nombre":"Lanús","id":"060434"},"departamento":{"nombre":"Lanús","id":"06434"},"nombre":"Lanús","id":"06434010","provincia":{"nombre":"Buenos Aires","id":"06"},"funcion":"CABECERA_DEPARTAMENTO","categoria":"Componente de localidad compuesta","centroide":{"lat":-34.706359523865,"lon":-58.3910857563038}},{"fuente":"INDEC","municipio":{"nombre":"La Plata","id":"060441"},"departamento":{"nombre":"La Plata","id":"06441"},"nombre":"Country Club El Rodeo","id":"06441010","provincia":{"nombre":"Buenos Aires","id":"06"},"funcion":null,"categoria":"Localidad simple","centroide":{"lat":-35.0794688053886,"lon":-58.1393275732941}},{"fuente":"INDEC","municipio":{"nombre":"La Plata","id":"060441"},"departamento":{"nombre":"La Plata","id":"06441"},"nombre":"Ignacio Correas","id":"06441020","provincia":{"nombre":"Buenos Aires","id":"06"},"funcion":null,"categoria":"Localidad simple","centroide":{"lat":-35.0345600341406,"lon":-57.8440249586726}},{"fuente":"INDEC","municipio":{"nombre":"La Plata","id":"060441"},"departamento":{"nombre":"La Plata","id":"06441"},"nombre":"La Plata","id":"06441030","provincia":{"nombre":"Buenos Aires","id":"06"},"funcion":"CAPITAL_PROVINCIA","categoria":"Componente de localidad compuesta","centroide":{"lat":-34.9220666561801,"lon":-57.9543916496992}},{"fuente":"INDEC","municipio":{"nombre":"La Plata","id":"060441"},"departamento":{"nombre":"La Plata","id":"06441"},"nombre":"Lomas de Copello","id":"06441040","provincia":{"nombre":"Buenos Aires","id":"06"},"funcion":null,"categoria":"Localidad simple","centroide":{"lat":-34.9520385659845,"lon":-57.8409385980166}},{"fuente":"INDEC","municipio":{"nombre":"La Plata","id":"060441"},"departamento":{"nombre":"La Plata","id":"06441"},"nombre":"Ruta Sol","id":"06441050","provincia":{"nombre":"Buenos Aires","id":"06"},"funcion":null,"categoria":"Componente de localidad compuesta","centroide":{"lat":-34.9437333541431,"lon":-58.1732652389706}},{"fuente":"INDEC","municipio":{"nombre":"Laprida","id":"060448"},"departamento":{"nombre":"Laprida","id":"06448"},"nombre":"Laprida","id":"06448010","provincia":{"nombre":"Buenos Aires","id":"06"},"funcion":"CABECERA_DEPARTAMENTO","categoria":"Localidad simple","centroide":{"lat":-37.5467976434903,"lon":-60.7970535965801}},{"fuente":"INDEC","municipio":{"nombre":"Laprida","id":"060448"},"departamento":{"nombre":"Laprida","id":"06448"},"nombre":"Pueblo Nuevo","id":"06448020","provincia":{"nombre":"Buenos Aires","id":"06"},"funcion":null,"categoria":"Localidad simple","centroide":{"lat":-37.5227045258336,"lon":-60.7705546208497}},{"fuente":"INDEC","municipio":{"nombre":"Laprida","id":"060448"},"departamento":{"nombre":"Laprida","id":"06448"},"nombre":"Pueblo San Jorge","id":"06448030","provincia":{"nombre":"Buenos Aires","id":"06"},"funcion":null,"categoria":"Localidad simple","centroide":{"lat":-37.2298626892886,"lon":-60.9621658450441}},{"fuente":"INDEC","municipio":{"nombre":"Las Flores","id":"060455"},"departamento":{"nombre":"Las Flores","id":"06455"},"nombre":"Coronel Boerr","id":"06455010","provincia":{"nombre":"Buenos Aires","id":"06"},"funcion":null,"categoria":"Localidad simple","centroide":{"lat":-35.9414440334215,"lon":-59.0693547287839}},{"fuente":"INDEC","municipio":{"nombre":"Las Flores","id":"060455"},"departamento":{"nombre":"Las Flores","id":"06455"},"nombre":"El Trigo","id":"06455020","provincia":{"nombre":"Buenos Aires","id":"06"},"funcion":null,"categoria":"Localidad simple","centroide":{"lat":-35.8815483511482,"lon":-59.4063369903389}},{"fuente":"INDEC","municipio":{"nombre":"Las Flores","id":"060455"},"departamento":{"nombre":"Las Flores","id":"06455"},"nombre":"Las Flores","id":"06455030","provincia":{"nombre":"Buenos Aires","id":"06"},"funcion":"CABECERA_DEPARTAMENTO","categoria":"Localidad simple","centroide":{"lat":-36.0154969145348,"lon":-59.1004659218434}},{"fuente":"INDEC","municipio":{"nombre":"Las Flores","id":"060455"},"departamento":{"nombre":"Las Flores","id":"06455"},"nombre":"Pardo","id":"06455040","provincia":{"nombre":"Buenos Aires","id":"06"},"funcion":null,"categoria":"Localidad simple","centroide":{"lat":-36.2437580460508,"lon":-59.3662916338311}},{"fuente":"INDEC","municipio":{"nombre":"Leandro N. Alem","id":"060462"},"departamento":{"nombre":"Leandro N. Alem","id":"06462"},"nombre":"Alberdi Viejo","id":"06462010","provincia":{"nombre":"Buenos Aires","id":"06"},"funcion":null,"categoria":"Localidad simple","centroide":{"lat":-34.4418003349,"lon":-61.8448787838164}},{"fuente":"INDEC","municipio":{"nombre":"Leandro N. Alem","id":"060462"},"departamento":{"nombre":"Leandro N. Alem","id":"06462"},"nombre":"El Dorado","id":"06462020","provincia":{"nombre":"Buenos Aires","id":"06"},"funcion":null,"categoria":"Localidad simple","centroide":{"lat":-34.6528608747523,"lon":-61.5829085058874}},{"fuente":"INDEC","municipio":{"nombre":"Leandro N. Alem","id":"060462"},"departamento":{"nombre":"Leandro N. Alem","id":"06462"},"nombre":"Fortín Acha","id":"06462030","provincia":{"nombre":"Buenos Aires","id":"06"},"funcion":null,"categoria":"Localidad simple","centroide":{"lat":-34.3430420274498,"lon":-61.5156655267072}},{"fuente":"INDEC","municipio":{"nombre":"Leandro N. Alem","id":"060462"},"departamento":{"nombre":"Leandro N. Alem","id":"06462"},"nombre":"Juan Bautista Alberdi","id":"06462040","provincia":{"nombre":"Buenos Aires","id":"06"},"funcion":null,"categoria":"Localidad simple","centroide":{"lat":-34.4387919326349,"lon":-61.8121893821736}},{"fuente":"INDEC","municipio":{"nombre":"Leandro N. Alem","id":"060462"},"departamento":{"nombre":"Leandro N. Alem","id":"06462"},"nombre":"Leandro N. Alem","id":"06462050","provincia":{"nombre":"Buenos Aires","id":"06"},"funcion":null,"categoria":"Localidad simple","centroide":{"lat":-34.5217246234597,"lon":-61.3911828994839}},{"fuente":"INDEC","municipio":{"nombre":"Leandro N. Alem","id":"060462"},"departamento":{"nombre":"Leandro N. Alem","id":"06462"},"nombre":"Vedia","id":"06462060","provincia":{"nombre":"Buenos Aires","id":"06"},"funcion":"CABECERA_DEPARTAMENTO","categoria":"Localidad simple","centroide":{"lat":-34.4973984349932,"lon":-61.5453447631478}},{"fuente":"INDEC","municipio":{"nombre":"Lincoln","id":"060469"},"departamento":{"nombre":"Lincoln","id":"06469"},"nombre":"Arenaza","id":"06469010","provincia":{"nombre":"Buenos Aires","id":"06"},"funcion":null,"categoria":"Localidad simple","centroide":{"lat":-34.9846043002154,"lon":-61.7729116988591}},{"fuente":"INDEC","municipio":{"nombre":"Lincoln","id":"060469"},"departamento":{"nombre":"Lincoln","id":"06469"},"nombre":"Bayauca","id":"06469020","provincia":{"nombre":"Buenos Aires","id":"06"},"funcion":null,"categoria":"Localidad simple","centroide":{"lat":-34.8710511337121,"lon":-61.2895451446375}},{"fuente":"INDEC","municipio":{"nombre":"Lincoln","id":"060469"},"departamento":{"nombre":"Lincoln","id":"06469"},"nombre":"Bermúdez","id":"06469030","provincia":{"nombre":"Buenos Aires","id":"06"},"funcion":null,"categoria":"Localidad simple","centroide":{"lat":-34.6966047108596,"lon":-61.3250128810539}},{"fuente":"INDEC","municipio":{"nombre":"Lincoln","id":"060469"},"departamento":{"nombre":"Lincoln","id":"06469"},"nombre":"Carlos Salas","id":"06469040","provincia":{"nombre":"Buenos Aires","id":"06"},"funcion":null,"categoria":"Localidad simple","centroide":{"lat":-35.3913662871435,"lon":-61.9949102331932}},{"fuente":"INDEC","municipio":{"nombre":"Lincoln","id":"060469"},"departamento":{"nombre":"Lincoln","id":"06469"},"nombre":"Coronel Martínez de Hoz","id":"06469050","provincia":{"nombre":"Buenos Aires","id":"06"},"funcion":null,"categoria":"Localidad simple","centroide":{"lat":-35.3321817215807,"lon":-61.6140851684372}},{"fuente":"INDEC","municipio":{"nombre":"Lincoln","id":"060469"},"departamento":{"nombre":"Lincoln","id":"06469"},"nombre":"El Triunfo","id":"06469060","provincia":{"nombre":"Buenos Aires","id":"06"},"funcion":null,"categoria":"Localidad simple","centroide":{"lat":-35.0882210775847,"lon":-61.5163333232821}},{"fuente":"INDEC","municipio":{"nombre":"Lincoln","id":"060469"},"departamento":{"nombre":"Lincoln","id":"06469"},"nombre":"Las Toscas","id":"06469070","provincia":{"nombre":"Buenos Aires","id":"06"},"funcion":null,"categoria":"Localidad simple","centroide":{"lat":-35.3649873001768,"lon":-61.8055485519284}},{"fuente":"INDEC","municipio":{"nombre":"Lincoln","id":"060469"},"departamento":{"nombre":"Lincoln","id":"06469"},"nombre":"Lincoln","id":"06469080","provincia":{"nombre":"Buenos Aires","id":"06"},"funcion":"CABECERA_DEPARTAMENTO","categoria":"Localidad simple","centroide":{"lat":-34.869042222818,"lon":-61.5291649669285}},{"fuente":"INDEC","municipio":{"nombre":"Lincoln","id":"060469"},"departamento":{"nombre":"Lincoln","id":"06469"},"nombre":"Pasteur","id":"06469090","provincia":{"nombre":"Buenos Aires","id":"06"},"funcion":null,"categoria":"Localidad simple","centroide":{"lat":-35.1426386337075,"lon":-62.2439028944601}},{"fuente":"INDEC","municipio":{"nombre":"Lincoln","id":"060469"},"departamento":{"nombre":"Lincoln","id":"06469"},"nombre":"Roberts","id":"06469100","provincia":{"nombre":"Buenos Aires","id":"06"},"funcion":null,"categoria":"Localidad simple","centroide":{"lat":-35.1440875676884,"lon":-61.9707859541264}},{"fuente":"INDEC","municipio":{"nombre":"Lincoln","id":"060469"},"departamento":{"nombre":"Lincoln","id":"06469"},"nombre":"Triunvirato","id":"06469110","provincia":{"nombre":"Buenos Aires","id":"06"},"funcion":null,"categoria":"Localidad simple","centroide":{"lat":-34.6758379792472,"lon":-61.4657087059048}},{"fuente":"INDEC","municipio":{"nombre":"Lobería","id":"060476"},"departamento":{"nombre":"Lobería","id":"06476"},"nombre":"Arenas Verdes","id":"06476010","provincia":{"nombre":"Buenos Aires","id":"06"},"funcion":null,"categoria":"Localidad simple","centroide":{"lat":-38.5463782386967,"lon":-58.557322112625}},{"fuente":"INDEC","municipio":{"nombre":"Lobería","id":"060476"},"departamento":{"nombre":"Lobería","id":"06476"},"nombre":"Licenciado Matienzo","id":"06476020","provincia":{"nombre":"Buenos Aires","id":"06"},"funcion":null,"categoria":"Localidad simple","centroide":{"lat":-37.9097927118145,"lon":-58.9120965943061}},{"fuente":"INDEC","municipio":{"nombre":"Lobería","id":"060476"},"departamento":{"nombre":"Lobería","id":"06476"},"nombre":"Lobería","id":"06476030","provincia":{"nombre":"Buenos Aires","id":"06"},"funcion":"CABECERA_DEPARTAMENTO","categoria":"Localidad simple","centroide":{"lat":-38.165273387122,"lon":-58.7822303314999}},{"fuente":"INDEC","municipio":{"nombre":"Lobería","id":"060476"},"departamento":{"nombre":"Lobería","id":"06476"},"nombre":"Pieres","id":"06476040","provincia":{"nombre":"Buenos Aires","id":"06"},"funcion":null,"categoria":"Localidad simple","centroide":{"lat":-38.3962306181995,"lon":-58.670580006548}},{"fuente":"INDEC","municipio":{"nombre":"Lobería","id":"060476"},"departamento":{"nombre":"Lobería","id":"06476"},"nombre":"San Manuel","id":"06476050","provincia":{"nombre":"Buenos Aires","id":"06"},"funcion":null,"categoria":"Localidad simple","centroide":{"lat":-37.7892829007834,"lon":-58.8486476710495}},{"fuente":"INDEC","municipio":{"nombre":"Lobería","id":"060476"},"departamento":{"nombre":"Lobería","id":"06476"},"nombre":"Tamangueyú","id":"06476060","provincia":{"nombre":"Buenos Aires","id":"06"},"funcion":null,"categoria":"Localidad simple","centroide":{"lat":-38.2010112434137,"lon":-58.7373143964601}},{"fuente":"INDEC","municipio":{"nombre":"Lobos","id":"060483"},"departamento":{"nombre":"Lobos","id":"06483"},"nombre":"Antonio Carboni","id":"06483010","provincia":{"nombre":"Buenos Aires","id":"06"},"funcion":null,"categoria":"Localidad simple","centroide":{"lat":-35.2033088915799,"lon":-59.3449562581802}},{"fuente":"INDEC","municipio":{"nombre":"Lobos","id":"060483"},"departamento":{"nombre":"Lobos","id":"06483"},"nombre":"Elvira","id":"06483020","provincia":{"nombre":"Buenos Aires","id":"06"},"funcion":null,"categoria":"Localidad simple","centroide":{"lat":-35.243272141682,"lon":-59.4860397931491}},{"fuente":"INDEC","municipio":{"nombre":"Lobos","id":"060483"},"departamento":{"nombre":"Lobos","id":"06483"},"nombre":"Laguna de Lobos","id":"06483030","provincia":{"nombre":"Buenos Aires","id":"06"},"funcion":null,"categoria":"Localidad simple","centroide":{"lat":-35.2747624905943,"lon":-59.1339060011927}},{"fuente":"INDEC","municipio":{"nombre":"Lobos","id":"060483"},"departamento":{"nombre":"Lobos","id":"06483"},"nombre":"Lobos","id":"06483040","provincia":{"nombre":"Buenos Aires","id":"06"},"funcion":"CABECERA_DEPARTAMENTO","categoria":"Localidad simple","centroide":{"lat":-35.1858677983922,"lon":-59.0957115706922}},{"fuente":"INDEC","municipio":{"nombre":"Lobos","id":"060483"},"departamento":{"nombre":"Lobos","id":"06483"},"nombre":"Salvador María","id":"06483050","provincia":{"nombre":"Buenos Aires","id":"06"},"funcion":null,"categoria":"Localidad simple","centroide":{"lat":-35.3028071422894,"lon":-59.1696841440202}},{"fuente":"INDEC","municipio":{"nombre":"Lomas de Zamora","id":"060490"},"departamento":{"nombre":"Lomas de Zamora","id":"06490"},"nombre":"Lomas de Zamora","id":"06490010","provincia":{"nombre":"Buenos Aires","id":"06"},"funcion":"CABECERA_DEPARTAMENTO","categoria":"Componente de localidad compuesta","centroide":{"lat":-34.7611602446537,"lon":-58.3987660554104}},{"fuente":"INDEC","municipio":{"nombre":"Luján","id":"060497"},"departamento":{"nombre":"Luján","id":"06497"},"nombre":"Carlos Keen","id":"06497020","provincia":{"nombre":"Buenos Aires","id":"06"},"funcion":null,"categoria":"Localidad simple","centroide":{"lat":-34.4862819813638,"lon":-59.2180861330698}},{"fuente":"INDEC","municipio":{"nombre":"Luján","id":"060497"},"departamento":{"nombre":"Luján","id":"06497"},"nombre":"Club de Campo Los Puentes","id":"06497025","provincia":{"nombre":"Buenos Aires","id":"06"},"funcion":null,"categoria":"Localidad simple","centroide":{"lat":-34.5760126891974,"lon":-59.0214105976263}},{"fuente":"INDEC","municipio":{"nombre":"Luján","id":"060497"},"departamento":{"nombre":"Luján","id":"06497"},"nombre":"Luján","id":"06497060","provincia":{"nombre":"Buenos Aires","id":"06"},"funcion":"CABECERA_DEPARTAMENTO","categoria":"Localidad simple","centroide":{"lat":-34.5706550661631,"lon":-59.109540176033}},{"fuente":"INDEC","municipio":{"nombre":"Luján","id":"060497"},"departamento":{"nombre":"Luján","id":"06497"},"nombre":"Olivera","id":"06497070","provincia":{"nombre":"Buenos Aires","id":"06"},"funcion":null,"categoria":"Localidad simple","centroide":{"lat":-34.6265041710141,"lon":-59.2533805145177}},{"fuente":"INDEC","municipio":{"nombre":"Luján","id":"060497"},"departamento":{"nombre":"Luján","id":"06497"},"nombre":"Torres","id":"06497090","provincia":{"nombre":"Buenos Aires","id":"06"},"funcion":null,"categoria":"Localidad simple","centroide":{"lat":-34.4318215080317,"lon":-59.1287739002816}},{"fuente":"INDEC","municipio":{"nombre":"Magdalena","id":"060505"},"departamento":{"nombre":"Magdalena","id":"06505"},"nombre":"Atalaya","id":"06505010","provincia":{"nombre":"Buenos Aires","id":"06"},"funcion":null,"categoria":"Localidad simple","centroide":{"lat":-35.0240363457416,"lon":-57.5340253600961}},{"fuente":"INDEC","municipio":{"nombre":"Magdalena","id":"060505"},"departamento":{"nombre":"Magdalena","id":"06505"},"nombre":"General Mansilla","id":"06505020","provincia":{"nombre":"Buenos Aires","id":"06"},"funcion":null,"categoria":"Localidad simple","centroide":{"lat":-35.0816834306862,"lon":-57.7469762592144}},{"fuente":"INDEC","municipio":{"nombre":"Magdalena","id":"060505"},"departamento":{"nombre":"Magdalena","id":"06505"},"nombre":"Los Naranjos","id":"06505030","provincia":{"nombre":"Buenos Aires","id":"06"},"funcion":null,"categoria":"Localidad simple","centroide":{"lat":-34.99655185849,"lon":-57.7036642458572}},{"fuente":"INDEC","municipio":{"nombre":"Magdalena","id":"060505"},"departamento":{"nombre":"Magdalena","id":"06505"},"nombre":"Magdalena","id":"06505040","provincia":{"nombre":"Buenos Aires","id":"06"},"funcion":"CABECERA_DEPARTAMENTO","categoria":"Localidad simple","centroide":{"lat":-35.0806853032506,"lon":-57.5172585839911}},{"fuente":"INDEC","municipio":{"nombre":"Magdalena","id":"060505"},"departamento":{"nombre":"Magdalena","id":"06505"},"nombre":"Roberto J. Payró","id":"06505050","provincia":{"nombre":"Buenos Aires","id":"06"},"funcion":null,"categoria":"Localidad simple","centroide":{"lat":-35.1799267057869,"lon":-57.651986019808}},{"fuente":"INDEC","municipio":{"nombre":"Magdalena","id":"060505"},"departamento":{"nombre":"Magdalena","id":"06505"},"nombre":"Vieytes","id":"06505060","provincia":{"nombre":"Buenos Aires","id":"06"},"funcion":null,"categoria":"Localidad simple","centroide":{"lat":-35.269568396303,"lon":-57.5757117447539}},{"fuente":"INDEC","municipio":{"nombre":"Maipú","id":"060511"},"departamento":{"nombre":"Maipú","id":"06511"},"nombre":"Las Armas","id":"06511010","provincia":{"nombre":"Buenos Aires","id":"06"},"funcion":null,"categoria":"Localidad simple","centroide":{"lat":-37.0860540989,"lon":-57.8285752273883}},{"fuente":"INDEC","municipio":{"nombre":"Maipú","id":"060511"},"departamento":{"nombre":"Maipú","id":"06511"},"nombre":"Maipú","id":"06511020","provincia":{"nombre":"Buenos Aires","id":"06"},"funcion":"CABECERA_DEPARTAMENTO","categoria":"Localidad simple","centroide":{"lat":-36.8648514645038,"lon":-57.8829166198472}},{"fuente":"INDEC","municipio":{"nombre":"Maipú","id":"060511"},"departamento":{"nombre":"Maipú","id":"06511"},"nombre":"Santo Domingo","id":"06511030","provincia":{"nombre":"Buenos Aires","id":"06"},"funcion":null,"categoria":"Localidad simple","centroide":{"lat":-36.7137597811284,"lon":-57.5860126519926}},{"fuente":"INDEC","municipio":{"nombre":"Malvinas Argentinas","id":"060515"},"departamento":{"nombre":"Malvinas Argentinas","id":"06515"},"nombre":"Malvinas Argentinas","id":"06515010","provincia":{"nombre":"Buenos Aires","id":"06"},"funcion":"CABECERA_DEPARTAMENTO","categoria":"Componente de localidad compuesta","centroide":{"lat":-34.4941030304424,"lon":-58.7005058220394}},{"fuente":"INDEC","municipio":{"nombre":"Adolfo Gonzales Chaves","id":"060014"},"departamento":{"nombre":"Adolfo Gonzales Chaves","id":"06014"},"nombre":"Juan E. Barra","id":"06014030","provincia":{"nombre":"Buenos Aires","id":"06"},"funcion":null,"categoria":"Localidad simple","centroide":{"lat":-37.8233871716044,"lon":-60.484639770555}},{"fuente":"INDEC","municipio":{"nombre":"Balcarce","id":"060063"},"departamento":{"nombre":"Balcarce","id":"06063"},"nombre":"Napaleofú","id":"06063030","provincia":{"nombre":"Buenos Aires","id":"06"},"funcion":null,"categoria":"Localidad simple","centroide":{"lat":-37.6254980210026,"lon":-58.7461862359423}},{"fuente":"INDEC","municipio":{"nombre":"Mar Chiquita","id":"060518"},"departamento":{"nombre":"Mar Chiquita","id":"06518"},"nombre":"Coronel Vidal","id":"06518010","provincia":{"nombre":"Buenos Aires","id":"06"},"funcion":"CABECERA_DEPARTAMENTO","categoria":"Localidad simple","centroide":{"lat":-37.452214188593,"lon":-57.7299500229319}},{"fuente":"INDEC","municipio":{"nombre":"Mar Chiquita","id":"060518"},"departamento":{"nombre":"Mar Chiquita","id":"06518"},"nombre":"General Pirán","id":"06518020","provincia":{"nombre":"Buenos Aires","id":"06"},"funcion":null,"categoria":"Localidad simple","centroide":{"lat":-37.2778606745914,"lon":-57.7740148170474}},{"fuente":"INDEC","municipio":{"nombre":"Mar Chiquita","id":"060518"},"departamento":{"nombre":"Mar Chiquita","id":"06518"},"nombre":"La Armonía","id":"06518030","provincia":{"nombre":"Buenos Aires","id":"06"},"funcion":null,"categoria":"Localidad simple","centroide":{"lat":-37.774854850113,"lon":-57.6351210747907}},{"fuente":"INDEC","municipio":{"nombre":"Mar Chiquita","id":"060518"},"departamento":{"nombre":"Mar Chiquita","id":"06518"},"nombre":"Mar Chiquita","id":"06518040","provincia":{"nombre":"Buenos Aires","id":"06"},"funcion":null,"categoria":"Localidad simple","centroide":{"lat":-37.7462581727647,"lon":-57.4274479339348}},{"fuente":"INDEC","municipio":{"nombre":"Mar Chiquita","id":"060518"},"departamento":{"nombre":"Mar Chiquita","id":"06518"},"nombre":"Mar de Cobo","id":"06518050","provincia":{"nombre":"Buenos Aires","id":"06"},"funcion":null,"categoria":"Localidad simple","centroide":{"lat":-37.7711670626007,"lon":-57.4521689795217}},{"fuente":"INDEC","municipio":{"nombre":"Mar Chiquita","id":"060518"},"departamento":{"nombre":"Mar Chiquita","id":"06518"},"nombre":"Santa Clara del Mar","id":"06518060","provincia":{"nombre":"Buenos Aires","id":"06"},"funcion":null,"categoria":"Localidad simple","centroide":{"lat":-37.8362727356321,"lon":-57.5079699159083}},{"fuente":"INDEC","municipio":{"nombre":"Mar Chiquita","id":"060518"},"departamento":{"nombre":"Mar Chiquita","id":"06518"},"nombre":"Vivoratá","id":"06518070","provincia":{"nombre":"Buenos Aires","id":"06"},"funcion":null,"categoria":"Localidad simple","centroide":{"lat":-37.6627994476991,"lon":-57.6670967441538}},{"fuente":"INDEC","municipio":{"nombre":"Marcos Paz","id":"060525"},"departamento":{"nombre":"Marcos Paz","id":"06525"},"nombre":"Barrio Santa Rosa","id":"06525010","provincia":{"nombre":"Buenos Aires","id":"06"},"funcion":null,"categoria":"Localidad simple","centroide":{"lat":-34.953080822173,"lon":-58.78292863718}},{"fuente":"INDEC","municipio":{"nombre":"Marcos Paz","id":"060525"},"departamento":{"nombre":"Marcos Paz","id":"06525"},"nombre":"Marcos Paz","id":"06525020","provincia":{"nombre":"Buenos Aires","id":"06"},"funcion":"CABECERA_DEPARTAMENTO","categoria":"Componente de localidad compuesta","centroide":{"lat":-34.7800219917336,"lon":-58.8335252686468}},{"fuente":"INDEC","municipio":{"nombre":"Mercedes","id":"060532"},"departamento":{"nombre":"Mercedes","id":"06532"},"nombre":"Goldney","id":"06532005","provincia":{"nombre":"Buenos Aires","id":"06"},"funcion":null,"categoria":"Localidad simple","centroide":{"lat":-34.6029546709308,"lon":-59.288213732192}},{"fuente":"INDEC","municipio":{"nombre":"Mercedes","id":"060532"},"departamento":{"nombre":"Mercedes","id":"06532"},"nombre":"Gowland","id":"06532010","provincia":{"nombre":"Buenos Aires","id":"06"},"funcion":null,"categoria":"Localidad simple","centroide":{"lat":-34.652429281715,"lon":-59.3523186300108}},{"fuente":"INDEC","municipio":{"nombre":"Mercedes","id":"060532"},"departamento":{"nombre":"Mercedes","id":"06532"},"nombre":"Mercedes","id":"06532020","provincia":{"nombre":"Buenos Aires","id":"06"},